{"type":"FeatureCollection","features":[{"type":"Feature","properties":{"name":"Taquile Island, Peru","region":"Puno","country":"Perú","country_code":"pe"},"geometry":{"type":"Point","coordinates":[-69.68371,-15.770614]}},{"type":"Feature","properties":{"name":"Comino, Malta","region":"Malta","country":"Malta","country_code":"mt"},"geometry":{"type":"Point","coordinates":[14.337137,36.01276]}},{"type":"Feature","properties":{"name":"Island of Gozo, Malta","region":"Malta","country":"Malta","country_code":"mt"},"geometry":{"type":"Point","coordinates":[14.251328,36.04799]}},{"type":"Feature","properties":{"name":"Ggantija, Malta","region":"Malta","country":"Malta","country_code":"mt"},"geometry":{"type":"Point","coordinates":[14.268888,36.05]}},{"type":"Feature","properties":{"name":"Perpignan, France","region":"Occitanie","country":"France","country_code":"fr"},"geometry":{"type":"Point","coordinates":[2.89557,42.69871]}},{"type":"Feature","properties":{"name":"Isla Amantani, Peru","region":"Puno","country":"Perú","country_code":"pe"},"geometry":{"type":"Point","coordinates":[-69.71011,-15.66467]}},{"type":"Feature","properties":{"name":"Caldes de Malavella, Spain","region":"Catalunya","country":"España","country_code":"es"},"geometry":{"type":"Point","coordinates":[2.8018,41.83856]}},{"type":"Feature","properties":{"name":"Montpellier, France","region":"Occitanie","country":"France","country_code":"fr"},"geometry":{"type":"Point","coordinates":[3.880531,43.606926]}},{"type":"Feature","properties":{"name":"Collioure, France","region":"Occitanie","country":"France","country_code":"fr"},"geometry":{"type":"Point","coordinates":[3.0856,42.52384]}},{"type":"Feature","properties":{"name":"Castelldefels, Spain","region":"Catalunya","country":"España","country_code":"es"},"geometry":{"type":"Point","coordinates":[1.976809,41.275085]}},{"type":"Feature","properties":{"name":"Kuala Lumpur, Malaysia","region":"Kuala Lumpur","country":"Malaysia","country_code":"my"},"geometry":{"type":"Point","coordinates":[101.69717,3.156802]}},{"type":"Feature","properties":{"name":"Tamariu, Spain","region":"Catalunya","country":"España","country_code":"es"},"geometry":{"type":"Point","coordinates":[3.20655,41.91834]}},{"type":"Feature","properties":{"name":"Dublin, Ireland","region":"Éire / Ireland","country":"Éire / Ireland","country_code":"ie"},"geometry":{"type":"Point","coordinates":[-6.25341,53.345966]}},{"type":"Feature","properties":{"name":"Akumal, Mexico","region":"Quintana Roo","country":"México","country_code":"mx"},"geometry":{"type":"Point","coordinates":[-87.30396,20.41142]}},{"type":"Feature","properties":{"name":"Amsterdam, The Netherlands","region":"Noord-Holland","country":"Nederland","country_code":"nl"},"geometry":{"type":"Point","coordinates":[4.89,52.37]}},{"type":"Feature","properties":{"name":"Bratislava, Slovakia","region":"Bratislavský kraj","country":"Slovensko","country_code":"sk"},"geometry":{"type":"Point","coordinates":[17.108503,48.149662]}},{"type":"Feature","properties":{"name":"Sort, Spain","region":"Catalunya","country":"España","country_code":"es"},"geometry":{"type":"Point","coordinates":[1.131061,42.41159]}},{"type":"Feature","properties":{"name":"Platja d'Aro, Spain","region":"Catalunya","country":"España","country_code":"es"},"geometry":{"type":"Point","coordinates":[3.067231,41.817513]}},{"type":"Feature","properties":{"name":"Heeg, The Netherlands","region":"Fryslân","country":"Nederland","country_code":"nl"},"geometry":{"type":"Point","coordinates":[5.60633,52.96894]}},{"type":"Feature","properties":{"name":"Wroclaw, Poland","region":"województwo dolnośląskie","country":"Polska","country_code":"pl"},"geometry":{"type":"Point","coordinates":[17.02691,51.10825]}},{"type":"Feature","properties":{"name":"Peniscola, Spain","region":"Comunitat Valenciana","country":"España","country_code":"es"},"geometry":{"type":"Point","coordinates":[0.39994,40.35922]}},{"type":"Feature","properties":{"name":"San Teodoro, Italy","region":"Sardigna/Sardegna","country":"Italia","country_code":"it"},"geometry":{"type":"Point","coordinates":[9.671213,40.77032]}},{"type":"Feature","properties":{"name":"Genoa, Italy","region":"Liguria","country":"Italia","country_code":"it"},"geometry":{"type":"Point","coordinates":[8.938325,44.40481]}},{"type":"Feature","properties":{"name":"Accra, Ghana","region":"Greater Accra Region","country":"Ghana","country_code":"gh"},"geometry":{"type":"Point","coordinates":[-0.19897,5.58108]}},{"type":"Feature","properties":{"name":"Puno, Peru","region":"Puno","country":"Perú","country_code":"pe"},"geometry":{"type":"Point","coordinates":[-70.020424,-15.842083]}},{"type":"Feature","properties":{"name":"El Medano, Spain","region":"Canarias","country":"España","country_code":"es"},"geometry":{"type":"Point","coordinates":[-16.53862,28.04703]}},{"type":"Feature","properties":{"name":"Paris, France","region":"Île-de-France","country":"France","country_code":"fr"},"geometry":{"type":"Point","coordinates":[2.349401,48.857037]}},{"type":"Feature","properties":{"name":"Kashan, Iran","region":"ایران","country":"ایران","country_code":"ir"},"geometry":{"type":"Point","coordinates":[51.43768,33.98785]}},{"type":"Feature","properties":{"name":"Volendam, The Netherlands","region":"Noord-Holland","country":"Nederland","country_code":"nl"},"geometry":{"type":"Point","coordinates":[5.073597,52.49376]}},{"type":"Feature","properties":{"name":"Valladolid, Mexico","region":"Yucatán","country":"México","country_code":"mx"},"geometry":{"type":"Point","coordinates":[-88.2001,20.68851]}},{"type":"Feature","properties":{"name":"Uxmal, Mexico","region":"Yucatán","country":"México","country_code":"mx"},"geometry":{"type":"Point","coordinates":[-89.76966,20.376654]}},{"type":"Feature","properties":{"name":"Parma, Italy","region":"Emilia-Romagna","country":"Italia","country_code":"it"},"geometry":{"type":"Point","coordinates":[10.3289,44.80266]}},{"type":"Feature","properties":{"name":"Rimini, Italy","region":"Emilia-Romagna","country":"Italia","country_code":"it"},"geometry":{"type":"Point","coordinates":[12.570873,44.055927]}},{"type":"Feature","properties":{"name":"Ravenna, Italy","region":"Emilia-Romagna","country":"Italia","country_code":"it"},"geometry":{"type":"Point","coordinates":[12.196475,44.417316]}},{"type":"Feature","properties":{"name":"Corigliano Calabro, Italy","region":"Calabria","country":"Italia","country_code":"it"},"geometry":{"type":"Point","coordinates":[16.516413,39.599033]}},{"type":"Feature","properties":{"name":"Akosombo, Ghana","region":"Eastern Region","country":"Ghana","country_code":"gh"},"geometry":{"type":"Point","coordinates":[0.044446,6.266584]}},{"type":"Feature","properties":{"name":"Orosei, Italy","region":"Sardigna/Sardegna","country":"Italia","country_code":"it"},"geometry":{"type":"Point","coordinates":[9.694828,40.378716]}},{"type":"Feature","properties":{"name":"Tabernes de Valldigna, Spain","region":"Comunitat Valenciana","country":"España","country_code":"es"},"geometry":{"type":"Point","coordinates":[-0.26627,39.07067]}},{"type":"Feature","properties":{"name":"Cadaques, Spain","region":"Catalunya","country":"España","country_code":"es"},"geometry":{"type":"Point","coordinates":[3.275896,42.288906]}},{"type":"Feature","properties":{"name":"Verges, Spain","region":"Catalunya","country":"España","country_code":"es"},"geometry":{"type":"Point","coordinates":[3.04789,42.06221]}},{"type":"Feature","properties":{"name":"Mont-Saint-Michel, France","region":"France métropolitaine","country":"France","country_code":"fr"},"geometry":{"type":"Point","coordinates":[-1.509604,48.63308]}},{"type":"Feature","properties":{"name":"Valladolid, Spain","region":"Castilla y León","country":"España","country_code":"es"},"geometry":{"type":"Point","coordinates":[-4.73214,41.6542]}},{"type":"Feature","properties":{"name":"Marseille, France","region":"Provence-Alpes-Côte d'Azur","country":"France","country_code":"fr"},"geometry":{"type":"Point","coordinates":[5.37,43.2964]}},{"type":"Feature","properties":{"name":"Barcelona, Spain","region":"Catalunya","country":"España","country_code":"es"},"geometry":{"type":"Point","coordinates":[2.169576,41.385597]}},{"type":"Feature","properties":{"name":"El Palmar, Spain","region":"Andalucía","country":"España","country_code":"es"},"geometry":{"type":"Point","coordinates":[-6.066184,36.234417]}},{"type":"Feature","properties":{"name":"Salamanca, Spain","region":"Castilla y León","country":"España","country_code":"es"},"geometry":{"type":"Point","coordinates":[-5.66385,40.96427]}},{"type":"Feature","properties":{"name":"Tours, France","region":"Centre-Val de Loire","country":"France","country_code":"fr"},"geometry":{"type":"Point","coordinates":[0.68956,47.39035]}},{"type":"Feature","properties":{"name":"Lima, Peru","region":"Lima","country":"Perú","country_code":"pe"},"geometry":{"type":"Point","coordinates":[-77.03925,-12.072676]}},{"type":"Feature","properties":{"name":"Ifrane, Morocco","region":"Fès-Meknès ⴼⴰⵙ-ⵎⴽⵏⴰⵙ فاس-مكناس","country":"Maroc ⵍⵎⵖⵔⵉⴱ المغرب","country_code":"ma"},"geometry":{"type":"Point","coordinates":[-5.10212,33.53414]}},{"type":"Feature","properties":{"name":"Cusco, Peru","region":"Cusco","country":"Perú","country_code":"pe"},"geometry":{"type":"Point","coordinates":[-71.96856,-13.521886]}},{"type":"Feature","properties":{"name":"Arequipa, Peru","region":"Arequipa","country":"Perú","country_code":"pe"},"geometry":{"type":"Point","coordinates":[-71.53407,-16.3982]}},{"type":"Feature","properties":{"name":"Girona, Spain","region":"Catalunya","country":"España","country_code":"es"},"geometry":{"type":"Point","coordinates":[2.81874,41.98081]}},{"type":"Feature","properties":{"name":"Cluj-Napoca, Romania","region":"România","country":"România","country_code":"ro"},"geometry":{"type":"Point","coordinates":[23.58814,46.76937]}},{"type":"Feature","properties":{"name":"La Molina, Spain","region":"Catalunya","country":"España","country_code":"es"},"geometry":{"type":"Point","coordinates":[1.95515,42.34582]}},{"type":"Feature","properties":{"name":"Maspalomas, Spain","region":"Canarias","country":"España","country_code":"es"},"geometry":{"type":"Point","coordinates":[-15.585423,27.76454]}},{"type":"Feature","properties":{"name":"Prague, Czech Republic","region":"Praha","country":"Česko","country_code":"cz"},"geometry":{"type":"Point","coordinates":[14.427817,50.076847]}},{"type":"Feature","properties":{"name":"Ercolano, Italy","region":"Campania","country":"Italia","country_code":"it"},"geometry":{"type":"Point","coordinates":[14.35286,40.80588]}},{"type":"Feature","properties":{"name":"Maastricht, The Netherlands","region":"Limburg","country":"Nederland","country_code":"nl"},"geometry":{"type":"Point","coordinates":[5.68829,50.84984]}},{"type":"Feature","properties":{"name":"Podgorica, Montenegro","region":"Crna Gora / Црна Гора","country":"Crna Gora / Црна Гора","country_code":"me"},"geometry":{"type":"Point","coordinates":[19.26391,42.43544]}},{"type":"Feature","properties":{"name":"Chambord, France","region":"Normandie","country":"France","country_code":"fr"},"geometry":{"type":"Point","coordinates":[0.60852,48.88996]}},{"type":"Feature","properties":{"name":"Essaouira, Morocco","region":"Marrakech-Safi ⵎⵕⵕⴰⴽⵛ-ⴰⵙⴼⵉ مراكش-أسفي","country":"Maroc ⵍⵎⵖⵔⵉⴱ المغرب","country_code":"ma"},"geometry":{"type":"Point","coordinates":[-9.760016,31.501253]}},{"type":"Feature","properties":{"name":"Santiponce, Spain","region":"Andalucía","country":"España","country_code":"es"},"geometry":{"type":"Point","coordinates":[-6.0386,37.43483]}},{"type":"Feature","properties":{"name":"Besalu, Spain","region":"Catalunya","country":"España","country_code":"es"},"geometry":{"type":"Point","coordinates":[2.69811,42.20036]}},{"type":"Feature","properties":{"name":"Copenhagen, Denmark","region":"Region Hovedstaden","country":"Danmark","country_code":"dk"},"geometry":{"type":"Point","coordinates":[12.580593,55.67502]}},{"type":"Feature","properties":{"name":"Chenonceaux, France","region":"Centre-Val de Loire","country":"France","country_code":"fr"},"geometry":{"type":"Point","coordinates":[1.06534,47.33215]}},{"type":"Feature","properties":{"name":"San Cristobal de La Laguna, Spain","region":"Canarias","country":"España","country_code":"es"},"geometry":{"type":"Point","coordinates":[-16.313917,28.489073]}},{"type":"Feature","properties":{"name":"Groningen, The Netherlands","region":"Groningen","country":"Nederland","country_code":"nl"},"geometry":{"type":"Point","coordinates":[6.564767,53.21788]}},{"type":"Feature","properties":{"name":"Santa Cruz de Tenerife, Spain","region":"Canarias","country":"España","country_code":"es"},"geometry":{"type":"Point","coordinates":[-16.258417,28.466293]}},{"type":"Feature","properties":{"name":"Wa, Ghana","region":"Upper West Region","country":"Ghana","country_code":"gh"},"geometry":{"type":"Point","coordinates":[-2.496871,10.057384]}},{"type":"Feature","properties":{"name":"Begur, Spain","region":"Catalunya","country":"España","country_code":"es"},"geometry":{"type":"Point","coordinates":[3.206026,41.953053]}},{"type":"Feature","properties":{"name":"Bologna, Italy","region":"Emilia-Romagna","country":"Italia","country_code":"it"},"geometry":{"type":"Point","coordinates":[11.343634,44.494133]}},{"type":"Feature","properties":{"name":"Modena, Italy","region":"Emilia-Romagna","country":"Italia","country_code":"it"},"geometry":{"type":"Point","coordinates":[10.926249,44.64661]}},{"type":"Feature","properties":{"name":"Shush, Iran","region":"ایران","country":"ایران","country_code":"ir"},"geometry":{"type":"Point","coordinates":[48.22531,32.29513]}},{"type":"Feature","properties":{"name":"Masada, Israel","region":"מחוז הצפון","country":"ישראל","country_code":"il"},"geometry":{"type":"Point","coordinates":[35.75638,33.23185]}},{"type":"Feature","properties":{"name":"Banyoles, Spain","region":"Catalunya","country":"España","country_code":"es"},"geometry":{"type":"Point","coordinates":[2.769691,42.112663]}},{"type":"Feature","properties":{"name":"Garachico, Spain","region":"Canarias","country":"España","country_code":"es"},"geometry":{"type":"Point","coordinates":[-16.7658,28.37246]}},{"type":"Feature","properties":{"name":"Tehran, Iran","region":"ایران","country":"ایران","country_code":"ir"},"geometry":{"type":"Point","coordinates":[51.393932,35.715397]}},{"type":"Feature","properties":{"name":"Nice, France","region":"Provence-Alpes-Côte d'Azur","country":"France","country_code":"fr"},"geometry":{"type":"Point","coordinates":[7.276729,43.700638]}},{"type":"Feature","properties":{"name":"Marcelli di Numana, Italy","region":"Marche","country":"Italia","country_code":"it"},"geometry":{"type":"Point","coordinates":[13.625184,43.492775]}},{"type":"Feature","properties":{"name":"Bacau, Romania","region":"România","country":"România","country_code":"ro"},"geometry":{"type":"Point","coordinates":[26.91095,46.56909]}},{"type":"Feature","properties":{"name":"Batu Caves, Malaysia","region":"Kuala Lumpur","country":"Malaysia","country_code":"my"},"geometry":{"type":"Point","coordinates":[101.66702,3.242071]}},{"type":"Feature","properties":{"name":"Kotor, Montenegro","region":"Crna Gora / Црна Гора","country":"Crna Gora / Црна Гора","country_code":"me"},"geometry":{"type":"Point","coordinates":[18.769894,42.42496]}},{"type":"Feature","properties":{"name":"Las Palmas de Gran Canaria, Spain","region":"Canarias","country":"España","country_code":"es"},"geometry":{"type":"Point","coordinates":[-15.438004,28.130705]}},{"type":"Feature","properties":{"name":"Blois, France","region":"Centre-Val de Loire","country":"France","country_code":"fr"},"geometry":{"type":"Point","coordinates":[1.331733,47.586872]}},{"type":"Feature","properties":{"name":"Berat, Albania","region":"Shqipëria Jugore","country":"Shqipëria","country_code":"al"},"geometry":{"type":"Point","coordinates":[19.957666,40.702084]}},{"type":"Feature","properties":{"name":"Kuala Tahan, Malaysia","region":"Pahang","country":"Malaysia","country_code":"my"},"geometry":{"type":"Point","coordinates":[102.40177,4.38195]}},{"type":"Feature","properties":{"name":"Azay-le-Rideau, France","region":"Centre-Val de Loire","country":"France","country_code":"fr"},"geometry":{"type":"Point","coordinates":[0.46514,47.26203]}},{"type":"Feature","properties":{"name":"Amboise, France","region":"Centre-Val de Loire","country":"France","country_code":"fr"},"geometry":{"type":"Point","coordinates":[0.98355,47.410404]}},{"type":"Feature","properties":{"name":"S'Agaro, Spain","region":"Catalunya","country":"España","country_code":"es"},"geometry":{"type":"Point","coordinates":[3.051092,41.796383]}},{"type":"Feature","properties":{"name":"Mataro, Spain","region":"Catalunya","country":"España","country_code":"es"},"geometry":{"type":"Point","coordinates":[2.44391,41.54152]}},{"type":"Feature","properties":{"name":"Lampedusa, Italy","region":"Sicilia","country":"Italia","country_code":"it"},"geometry":{"type":"Point","coordinates":[12.610155,35.50327]}},{"type":"Feature","properties":{"name":"San Isidro, Spain","region":"Canarias","country":"España","country_code":"es"},"geometry":{"type":"Point","coordinates":[-16.558207,28.078266]}},{"type":"Feature","properties":{"name":"La Caletta, Italy","region":"Sardigna/Sardegna","country":"Italia","country_code":"it"},"geometry":{"type":"Point","coordinates":[9.747254,40.607784]}},{"type":"Feature","properties":{"name":"Palma de Mallorca, Spain","region":"Illes Balears","country":"España","country_code":"es"},"geometry":{"type":"Point","coordinates":[2.646613,39.570015]}},{"type":"Feature","properties":{"name":"Cannes, France","region":"Provence-Alpes-Côte d'Azur","country":"France","country_code":"fr"},"geometry":{"type":"Point","coordinates":[7.01325,43.55325]}},{"type":"Feature","properties":{"name":"Dubrovnik, Croatia","region":"Hrvatska","country":"Hrvatska","country_code":"hr"},"geometry":{"type":"Point","coordinates":[18.079966,42.653934]}},{"type":"Feature","properties":{"name":"Baro, Spain","region":"Catalunya","country":"España","country_code":"es"},"geometry":{"type":"Point","coordinates":[1.08025,42.35958]}},{"type":"Feature","properties":{"name":"Bruges, Belgium","region":"West-Vlaanderen","country":"België / Belgique / Belgien","country_code":"be"},"geometry":{"type":"Point","coordinates":[3.2245,51.20847]}},{"type":"Feature","properties":{"name":"Atogo, Spain","region":"Canarias","country":"España","country_code":"es"},"geometry":{"type":"Point","coordinates":[-16.58739,28.0609]}},{"type":"Feature","properties":{"name":"Siena, Italy","region":"Toscana","country":"Italia","country_code":"it"},"geometry":{"type":"Point","coordinates":[11.326818,43.319355]}},{"type":"Feature","properties":{"name":"San Gimignano, Italy","region":"Toscana","country":"Italia","country_code":"it"},"geometry":{"type":"Point","coordinates":[11.044151,43.468628]}},{"type":"Feature","properties":{"name":"Saint-Malo, France","region":"Bretagne","country":"France","country_code":"fr"},"geometry":{"type":"Point","coordinates":[-2.02328,48.6505]}},{"type":"Feature","properties":{"name":"Rennes, France","region":"Bretagne","country":"France","country_code":"fr"},"geometry":{"type":"Point","coordinates":[-1.68043,48.106976]}},{"type":"Feature","properties":{"name":"Grasse, France","region":"Provence-Alpes-Côte d'Azur","country":"France","country_code":"fr"},"geometry":{"type":"Point","coordinates":[6.919078,43.654533]}},{"type":"Feature","properties":{"name":"Jerez De La Frontera, Spain","region":"Andalucía","country":"España","country_code":"es"},"geometry":{"type":"Point","coordinates":[-6.135243,36.68565]}},{"type":"Feature","properties":{"name":"Persepolis, Iran","region":"ایران","country":"ایران","country_code":"ir"},"geometry":{"type":"Point","coordinates":[52.891945,29.937532]}},{"type":"Feature","properties":{"name":"Metaponto, Italy","region":"Basilicata","country":"Italia","country_code":"it"},"geometry":{"type":"Point","coordinates":[16.80978,40.37104]}},{"type":"Feature","properties":{"name":"Olancha, CA, USA","region":"California","country":"United States","country_code":"us"},"geometry":{"type":"Point","coordinates":[-118.00527,36.28046]}},{"type":"Feature","properties":{"name":"Mole National Park, Ghana","region":"Savannah Region","country":"Ghana","country_code":"gh"},"geometry":{"type":"Point","coordinates":[-1.82632,9.514703]}},{"type":"Feature","properties":{"name":"Imola, Italy","region":"Emilia-Romagna","country":"Italia","country_code":"it"},"geometry":{"type":"Point","coordinates":[11.71168,44.3576]}},{"type":"Feature","properties":{"name":"Shiraz, Iran","region":"ایران","country":"ایران","country_code":"ir"},"geometry":{"type":"Point","coordinates":[52.53056,29.59101]}},{"type":"Feature","properties":{"name":"Bolgatanga, Ghana","region":"Upper East Region","country":"Ghana","country_code":"gh"},"geometry":{"type":"Point","coordinates":[-0.85487,10.78551]}},{"type":"Feature","properties":{"name":"Ohrid, Republic of North Macedonia","region":"Северна Македонија","country":"Северна Македонија","country_code":"mk"},"geometry":{"type":"Point","coordinates":[20.820751,41.12876]}},{"type":"Feature","properties":{"name":"Scheveningen, The Netherlands","region":"Zuid-Holland","country":"Nederland","country_code":"nl"},"geometry":{"type":"Point","coordinates":[4.277486,52.10427]}},{"type":"Feature","properties":{"name":"Cape Coast, Ghana","region":"Central Region","country":"Ghana","country_code":"gh"},"geometry":{"type":"Point","coordinates":[-1.26094,5.11896]}},{"type":"Feature","properties":{"name":"Aguas Calientes, Peru","region":"Cusco","country":"Perú","country_code":"pe"},"geometry":{"type":"Point","coordinates":[-72.52298,-13.156311]}},{"type":"Feature","properties":{"name":"Canet-en-Roussillon, France","region":"Occitanie","country":"France","country_code":"fr"},"geometry":{"type":"Point","coordinates":[3.007409,42.70521]}},{"type":"Feature","properties":{"name":"Huacachina, Peru","region":"Ica","country":"Perú","country_code":"pe"},"geometry":{"type":"Point","coordinates":[-75.75022,-14.082891]}},{"type":"Feature","properties":{"name":"Hamburg, Germany","region":"Deutschland","country":"Deutschland","country_code":"de"},"geometry":{"type":"Point","coordinates":[10.013171,53.55556]}},{"type":"Feature","properties":{"name":"Vlore, Albania","region":"Shqipëria Jugore","country":"Shqipëria","country_code":"al"},"geometry":{"type":"Point","coordinates":[19.48787,40.47667]}},{"type":"Feature","properties":{"name":"Bilbao, Spain","region":"Euskadi","country":"España","country_code":"es"},"geometry":{"type":"Point","coordinates":[-2.931721,43.262074]}},{"type":"Feature","properties":{"name":"Arles, France","region":"Provence-Alpes-Côte d'Azur","country":"France","country_code":"fr"},"geometry":{"type":"Point","coordinates":[4.634936,43.690647]}},{"type":"Feature","properties":{"name":"Cornudella de Montsant, Spain","region":"Catalunya","country":"España","country_code":"es"},"geometry":{"type":"Point","coordinates":[0.90479,41.2647]}},{"type":"Feature","properties":{"name":"Medias, Romania","region":"România","country":"România","country_code":"ro"},"geometry":{"type":"Point","coordinates":[24.3546,46.16177]}},{"type":"Feature","properties":{"name":"Frankfurt, Germany","region":"Hessen","country":"Deutschland","country_code":"de"},"geometry":{"type":"Point","coordinates":[8.675079,50.107586]}},{"type":"Feature","properties":{"name":"Masca, Spain","region":"Canarias","country":"España","country_code":"es"},"geometry":{"type":"Point","coordinates":[-16.839554,28.30641]}},{"type":"Feature","properties":{"name":"San Sebastian - Donostia, Spain","region":"Euskadi","country":"España","country_code":"es"},"geometry":{"type":"Point","coordinates":[-1.975921,43.317516]}},{"type":"Feature","properties":{"name":"Ghent, Belgium","region":"Oost-Vlaanderen","country":"België / Belgique / Belgien","country_code":"be"},"geometry":{"type":"Point","coordinates":[3.72856,51.05563]}},{"type":"Feature","properties":{"name":"Alicante, Spain","region":"Comunitat Valenciana","country":"España","country_code":"es"},"geometry":{"type":"Point","coordinates":[-0.484558,38.344032]}},{"type":"Feature","properties":{"name":"Matalascanas, Spain","region":"Andalucía","country":"España","country_code":"es"},"geometry":{"type":"Point","coordinates":[-6.561478,37.009644]}},{"type":"Feature","properties":{"name":"Santa Pau, Spain","region":"Catalunya","country":"España","country_code":"es"},"geometry":{"type":"Point","coordinates":[2.57034,42.14664]}},{"type":"Feature","properties":{"name":"Lugano, Switzerland","region":"Ticino","country":"Schweiz/Suisse/Svizzera/Svizra","country_code":"ch"},"geometry":{"type":"Point","coordinates":[8.954944,46.005573]}},{"type":"Feature","properties":{"name":"Formigine, Italy","region":"Emilia-Romagna","country":"Italia","country_code":"it"},"geometry":{"type":"Point","coordinates":[10.847435,44.573208]}},{"type":"Feature","properties":{"name":"Olot, Spain","region":"Catalunya","country":"España","country_code":"es"},"geometry":{"type":"Point","coordinates":[2.488782,42.180958]}},{"type":"Feature","properties":{"name":"Porto, Portugal","region":"Portugal","country":"Portugal","country_code":"pt"},"geometry":{"type":"Point","coordinates":[-8.61031,41.14946]}},{"type":"Feature","properties":{"name":"Yosemite National Park, CA, USA","region":"California","country":"United States","country_code":"us"},"geometry":{"type":"Point","coordinates":[-119.54127,37.861076]}},{"type":"Feature","properties":{"name":"Nazca, Peru","region":"Ica","country":"Perú","country_code":"pe"},"geometry":{"type":"Point","coordinates":[-74.93997,-14.82549]}},{"type":"Feature","properties":{"name":"Granada, Spain","region":"Andalucía","country":"España","country_code":"es"},"geometry":{"type":"Point","coordinates":[-3.605812,37.176136]}},{"type":"Feature","properties":{"name":"George Town, Malaysia","region":"Pulau Pinang","country":"Malaysia","country_code":"my"},"geometry":{"type":"Point","coordinates":[100.32664,5.411938]}},{"type":"Feature","properties":{"name":"Seville, Spain","region":"Andalucía","country":"España","country_code":"es"},"geometry":{"type":"Point","coordinates":[-5.984327,37.38911]}},{"type":"Feature","properties":{"name":"Putrajaya, Malaysia","region":"Putrajaya","country":"Malaysia","country_code":"my"},"geometry":{"type":"Point","coordinates":[101.69156,2.9365]}},{"type":"Feature","properties":{"name":"Huelva, Spain","region":"Andalucía","country":"España","country_code":"es"},"geometry":{"type":"Point","coordinates":[-6.94525,37.25455]}},{"type":"Feature","properties":{"name":"Ica, Peru","region":"Ica","country":"Perú","country_code":"pe"},"geometry":{"type":"Point","coordinates":[-75.7303,-14.06392]}},{"type":"Feature","properties":{"name":"Sibiu, Romania","region":"România","country":"România","country_code":"ro"},"geometry":{"type":"Point","coordinates":[24.14759,45.79174]}},{"type":"Feature","properties":{"name":"Montblanc, Spain","region":"Catalunya","country":"España","country_code":"es"},"geometry":{"type":"Point","coordinates":[1.16433,41.37534]}},{"type":"Feature","properties":{"name":"Zaragoza, Spain","region":"Aragón","country":"España","country_code":"es"},"geometry":{"type":"Point","coordinates":[-0.876858,41.654484]}},{"type":"Feature","properties":{"name":"San Francisco, CA, USA","region":"California","country":"United States","country_code":"us"},"geometry":{"type":"Point","coordinates":[-122.41579,37.778934]}},{"type":"Feature","properties":{"name":"Aix-en-Provence, France","region":"Provence-Alpes-Côte d'Azur","country":"France","country_code":"fr"},"geometry":{"type":"Point","coordinates":[5.44973,43.5283]}},{"type":"Feature","properties":{"name":"Berlin, Germany","region":"Deutschland","country":"Deutschland","country_code":"de"},"geometry":{"type":"Point","coordinates":[13.397209,52.51959]}},{"type":"Feature","properties":{"name":"Liege, Belgium","region":"Liège","country":"België / Belgique / Belgien","country_code":"be"},"geometry":{"type":"Point","coordinates":[5.587366,50.643017]}},{"type":"Feature","properties":{"name":"Andimeshk, Iran","region":"ایران","country":"ایران","country_code":"ir"},"geometry":{"type":"Point","coordinates":[48.35579,32.46022]}},{"type":"Feature","properties":{"name":"Pangkor, Malaysia","region":"Perak","country":"Malaysia","country_code":"my"},"geometry":{"type":"Point","coordinates":[100.56276,4.21925]}},{"type":"Feature","properties":{"name":"Tiebele, Burkina Faso","region":"Centre-Sud","country":"Burkina Faso","country_code":"bf"},"geometry":{"type":"Point","coordinates":[-0.99108,11.19362]}},{"type":"Feature","properties":{"name":"Mitspe Ramon, Israel","region":"מחוז הדרום","country":"ישראל","country_code":"il"},"geometry":{"type":"Point","coordinates":[34.8011,30.6094]}},{"type":"Feature","properties":{"name":"Munich, Germany","region":"Bayern","country":"Deutschland","country_code":"de"},"geometry":{"type":"Point","coordinates":[11.57753,48.13641]}},{"type":"Feature","properties":{"name":"Ouarzazate, Morocco","region":"Drâa-Tafilalet ⴷⴰⵔⵄⴰ-ⵜⴰⴼⵉⵍⴰⵍⵜ درعة تافيلالت","country":"Maroc ⵍⵎⵖⵔⵉⴱ المغرب","country_code":"ma"},"geometry":{"type":"Point","coordinates":[-6.90848,30.91938]}},{"type":"Feature","properties":{"name":"Ferrara, Italy","region":"Emilia-Romagna","country":"Italia","country_code":"it"},"geometry":{"type":"Point","coordinates":[11.618743,44.838757]}},{"type":"Feature","properties":{"name":"Midpines, CA, USA","region":"California","country":"United States","country_code":"us"},"geometry":{"type":"Point","coordinates":[-119.92108,37.54719]}},{"type":"Feature","properties":{"name":"Merzouga, Morocco","region":"Drâa-Tafilalet ⴷⴰⵔⵄⴰ-ⵜⴰⴼⵉⵍⴰⵍⵜ درعة تافيلالت","country":"Maroc ⵍⵎⵖⵔⵉⴱ المغرب","country_code":"ma"},"geometry":{"type":"Point","coordinates":[-4.011312,31.100643]}},{"type":"Feature","properties":{"name":"Yazd, Iran","region":"ایران","country":"ایران","country_code":"ir"},"geometry":{"type":"Point","coordinates":[54.35115,31.90544]}},{"type":"Feature","properties":{"name":"Cordoba, Spain","region":"Andalucía","country":"España","country_code":"es"},"geometry":{"type":"Point","coordinates":[-4.779073,37.88069]}},{"type":"Feature","properties":{"name":"Vatican City, Vatican City","region":"Civitas Vaticana - Città del Vaticano","country":"Civitas Vaticana - Città del Vaticano","country_code":"va"},"geometry":{"type":"Point","coordinates":[12.454423,41.902363]}},{"type":"Feature","properties":{"name":"Stockholm, Sweden","region":"Sverige","country":"Sverige","country_code":"se"},"geometry":{"type":"Point","coordinates":[18.06151,59.330135]}},{"type":"Feature","properties":{"name":"Cadiz, Spain","region":"Andalucía","country":"España","country_code":"es"},"geometry":{"type":"Point","coordinates":[-6.295243,36.530533]}},{"type":"Feature","properties":{"name":"Shkoder, Albania","region":"Shqipëria Veriore","country":"Shqipëria","country_code":"al"},"geometry":{"type":"Point","coordinates":[19.519958,42.071724]}},{"type":"Feature","properties":{"name":"Rome, Italy","region":"Lazio","country":"Italia","country_code":"it"},"geometry":{"type":"Point","coordinates":[12.495978,41.893623]}},{"type":"Feature","properties":{"name":"Budapest, Hungary","region":"Közép-Magyarország","country":"Magyarország","country_code":"hu"},"geometry":{"type":"Point","coordinates":[19.0507,47.49346]}},{"type":"Feature","properties":{"name":"Merida, Mexico","region":"Yucatán","country":"México","country_code":"mx"},"geometry":{"type":"Point","coordinates":[-89.59243,20.967632]}},{"type":"Feature","properties":{"name":"Malaga, Spain","region":"Andalucía","country":"España","country_code":"es"},"geometry":{"type":"Point","coordinates":[-4.422782,36.718468]}},{"type":"Feature","properties":{"name":"Jerantut, Malaysia","region":"Pahang","country":"Malaysia","country_code":"my"},"geometry":{"type":"Point","coordinates":[102.58922,4.26003]}},{"type":"Feature","properties":{"name":"Tulum, Mexico","region":"Quintana Roo","country":"México","country_code":"mx"},"geometry":{"type":"Point","coordinates":[-87.46355,20.21242]}},{"type":"Feature","properties":{"name":"Chiclana de la Frontera, Spain","region":"Andalucía","country":"España","country_code":"es"},"geometry":{"type":"Point","coordinates":[-6.149142,36.422077]}},{"type":"Feature","properties":{"name":"Brussels, Belgium","region":"Région de Bruxelles-Capitale - Brussels Hoofdstedelijk Gewest","country":"België / Belgique / Belgien","country_code":"be"},"geometry":{"type":"Point","coordinates":[4.351959,50.849632]}},{"type":"Feature","properties":{"name":"L'Estartit, Spain","region":"Catalunya","country":"España","country_code":"es"},"geometry":{"type":"Point","coordinates":[3.200187,42.054523]}},{"type":"Feature","properties":{"name":"Mellieha, Malta","region":"Malta","country":"Malta","country_code":"mt"},"geometry":{"type":"Point","coordinates":[14.36222,35.95639]}},{"type":"Feature","properties":{"name":"Andorra la Vella, Andorra","region":"Andorra","country":"Andorra","country_code":"ad"},"geometry":{"type":"Point","coordinates":[1.525626,42.50689]}},{"type":"Feature","properties":{"name":"Golfo Aranci, Italy","region":"Sardigna/Sardegna","country":"Italia","country_code":"it"},"geometry":{"type":"Point","coordinates":[9.612899,41.004665]}},{"type":"Feature","properties":{"name":"Reggio Emilia, Italy","region":"Emilia-Romagna","country":"Italia","country_code":"it"},"geometry":{"type":"Point","coordinates":[10.632591,44.696968]}},{"type":"Feature","properties":{"name":"Craiova, Romania","region":"România","country":"România","country_code":"ro"},"geometry":{"type":"Point","coordinates":[23.79897,44.32019]}},{"type":"Feature","properties":{"name":"Siurana, Spain","region":"Catalunya","country":"España","country_code":"es"},"geometry":{"type":"Point","coordinates":[2.995119,42.208176]}},{"type":"Feature","properties":{"name":"Arbatax, Italy","region":"Sardigna/Sardegna","country":"Italia","country_code":"it"},"geometry":{"type":"Point","coordinates":[9.708478,39.938324]}},{"type":"Feature","properties":{"name":"Shengjin, Albania","region":"Shqipëria Veriore","country":"Shqipëria","country_code":"al"},"geometry":{"type":"Point","coordinates":[19.599888,41.80938]}},{"type":"Feature","properties":{"name":"Chichen Itza, Mexico","region":"Yucatán","country":"México","country_code":"mx"},"geometry":{"type":"Point","coordinates":[-88.56848,20.68049]}},{"type":"Feature","properties":{"name":"Teror, Spain","region":"Canarias","country":"España","country_code":"es"},"geometry":{"type":"Point","coordinates":[-15.480269,28.0977]}},{"type":"Feature","properties":{"name":"Capri, Italy","region":"Campania","country":"Italia","country_code":"it"},"geometry":{"type":"Point","coordinates":[14.306837,40.841064]}},{"type":"Feature","properties":{"name":"Ein Bokek, Israel","region":"מחוז הדרום","country":"ישראל","country_code":"il"},"geometry":{"type":"Point","coordinates":[35.36266,31.1966]}},{"type":"Feature","properties":{"name":"Sintra, Portugal","region":"Portugal","country":"Portugal","country_code":"pt"},"geometry":{"type":"Point","coordinates":[-9.3819,38.8008]}},{"type":"Feature","properties":{"name":"Mexico City, Mexico","region":"Ciudad de México","country":"México","country_code":"mx"},"geometry":{"type":"Point","coordinates":[-99.13325,19.432684]}},{"type":"Feature","properties":{"name":"London, UK","region":"England","country":"United Kingdom","country_code":"gb"},"geometry":{"type":"Point","coordinates":[-0.096654,51.51924]}},{"type":"Feature","properties":{"name":"Langkawi, Malaysia","region":"Kedah","country":"Malaysia","country_code":"my"},"geometry":{"type":"Point","coordinates":[99.75824,6.351074]}},{"type":"Feature","properties":{"name":"Antwerp, Belgium","region":"Antwerpen","country":"België / Belgique / Belgien","country_code":"be"},"geometry":{"type":"Point","coordinates":[4.409642,51.219032]}},{"type":"Feature","properties":{"name":"Kota Bharu, Malaysia","region":"Kelantan","country":"Malaysia","country_code":"my"},"geometry":{"type":"Point","coordinates":[102.23671,6.13544]}},{"type":"Feature","properties":{"name":"Pompeii, Italy","region":"Campania","country":"Italia","country_code":"it"},"geometry":{"type":"Point","coordinates":[14.25176,40.83999]}},{"type":"Feature","properties":{"name":"Krakow, Poland","region":"województwo małopolskie","country":"Polska","country_code":"pl"},"geometry":{"type":"Point","coordinates":[19.9324,50.06046]}},{"type":"Feature","properties":{"name":"Naples, Italy","region":"Campania","country":"Italia","country_code":"it"},"geometry":{"type":"Point","coordinates":[14.252355,40.840416]}},{"type":"Feature","properties":{"name":"Holbox Island, Mexico","region":"Quintana Roo","country":"México","country_code":"mx"},"geometry":{"type":"Point","coordinates":[-87.36746,21.523836]}},{"type":"Feature","properties":{"name":"Rotterdam, The Netherlands","region":"Zuid-Holland","country":"Nederland","country_code":"nl"},"geometry":{"type":"Point","coordinates":[4.480866,51.920525]}},{"type":"Feature","properties":{"name":"Jericho, Palestinian Territories","region":"الضفة الغربية","country":"الأراضي الفلسطينية","country_code":"ps"},"geometry":{"type":"Point","coordinates":[35.46215,31.854815]}},{"type":"Feature","properties":{"name":"Cancun, Mexico","region":"Quintana Roo","country":"México","country_code":"mx"},"geometry":{"type":"Point","coordinates":[-86.80287,21.14967]}},{"type":"Feature","properties":{"name":"The Hague, The Netherlands","region":"Zuid-Holland","country":"Nederland","country_code":"nl"},"geometry":{"type":"Point","coordinates":[4.310603,52.076355]}},{"type":"Feature","properties":{"name":"Rabat, Morocco","region":"Rabat-Salé-Kénitra ⵔⴱⴰⵟ-ⵙⵍⴰ-ⵇⵏⵉⵟⵔⴰ الرباط-سلا-القنيطرة","country":"Maroc ⵍⵎⵖⵔⵉⴱ المغرب","country_code":"ma"},"geometry":{"type":"Point","coordinates":[-6.836138,34.016308]}},{"type":"Feature","properties":{"name":"Valencia, Spain","region":"Comunitat Valenciana","country":"España","country_code":"es"},"geometry":{"type":"Point","coordinates":[-0.377154,39.473854]}},{"type":"Feature","properties":{"name":"Bethlehem, Palestinian Territories","region":"الضفة الغربية","country":"الأراضي الفلسطينية","country_code":"ps"},"geometry":{"type":"Point","coordinates":[35.20376,31.70487]}},{"type":"Feature","properties":{"name":"Marrakech, Morocco","region":"Marrakech-Safi ⵎⵕⵕⴰⴽⵛ-ⴰⵙⴼⵉ مراكش-أسفي","country":"Maroc ⵍⵎⵖⵔⵉⴱ المغرب","country_code":"ma"},"geometry":{"type":"Point","coordinates":[-8.002955,31.632172]}},{"type":"Feature","properties":{"name":"Meknes, Morocco","region":"Fès-Meknès ⴼⴰⵙ-ⵎⴽⵏⴰⵙ فاس-مكناس","country":"Maroc ⵍⵎⵖⵔⵉⴱ المغرب","country_code":"ma"},"geometry":{"type":"Point","coordinates":[-5.53551,33.88268]}},{"type":"Feature","properties":{"name":"Cirkewwa, Malta","region":"Malta","country":"Malta","country_code":"mt"},"geometry":{"type":"Point","coordinates":[14.328918,35.987747]}},{"type":"Feature","properties":{"name":"Lisbon, Portugal","region":"Portugal","country":"Portugal","country_code":"pt"},"geometry":{"type":"Point","coordinates":[-9.138085,38.71211]}},{"type":"Feature","properties":{"name":"Punta del Hidalgo, Spain","region":"Canarias","country":"España","country_code":"es"},"geometry":{"type":"Point","coordinates":[-16.32335,28.56936]}},{"type":"Feature","properties":{"name":"Aiguablava, Spain","region":"Catalunya","country":"España","country_code":"es"},"geometry":{"type":"Point","coordinates":[3.209644,41.93847]}},{"type":"Feature","properties":{"name":"Porto Cervo, Italy","region":"Sardigna/Sardegna","country":"Italia","country_code":"it"},"geometry":{"type":"Point","coordinates":[9.537477,41.128735]}},{"type":"Feature","properties":{"name":"Cascais, Portugal","region":"Portugal","country":"Portugal","country_code":"pt"},"geometry":{"type":"Point","coordinates":[-9.42146,38.6979]}},{"type":"Feature","properties":{"name":"Kuala Besut, Malaysia","region":"Terengganu","country":"Malaysia","country_code":"my"},"geometry":{"type":"Point","coordinates":[102.55401,5.82808]}},{"type":"Feature","properties":{"name":"Escaladei, Spain","region":"Catalunya","country":"España","country_code":"es"},"geometry":{"type":"Point","coordinates":[0.81099,41.24764]}},{"type":"Feature","properties":{"name":"Pisa, Italy","region":"Toscana","country":"Italia","country_code":"it"},"geometry":{"type":"Point","coordinates":[10.400349,43.71651]}},{"type":"Feature","properties":{"name":"San Andres, Spain","region":"Canarias","country":"España","country_code":"es"},"geometry":{"type":"Point","coordinates":[-16.19207,28.504808]}},{"type":"Feature","properties":{"name":"Tel Aviv, Israel","region":"מחוז תל אביב","country":"ישראל","country_code":"il"},"geometry":{"type":"Point","coordinates":[34.77224,32.071957]}},{"type":"Feature","properties":{"name":"Jerusalem, Israel","region":"מחוז ירושלים","country":"ישראל","country_code":"il"},"geometry":{"type":"Point","coordinates":[35.215874,31.78013]}},{"type":"Feature","properties":{"name":"Haifa, Israel","region":"מחוז חיפה","country":"ישראל","country_code":"il"},"geometry":{"type":"Point","coordinates":[35.00327,32.80124]}},{"type":"Feature","properties":{"name":"Florence, Italy","region":"Toscana","country":"Italia","country_code":"it"},"geometry":{"type":"Point","coordinates":[11.252379,43.767918]}},{"type":"Feature","properties":{"name":"Lucca, Italy","region":"Toscana","country":"Italia","country_code":"it"},"geometry":{"type":"Point","coordinates":[10.51535,43.84202]}},{"type":"Feature","properties":{"name":"Eilat, Israel","region":"מחוז הדרום","country":"ישראל","country_code":"il"},"geometry":{"type":"Point","coordinates":[34.945816,29.553314]}},{"type":"Feature","properties":{"name":"Avranches, France","region":"Normandie","country":"France","country_code":"fr"},"geometry":{"type":"Point","coordinates":[-1.36192,48.68638]}},{"type":"Feature","properties":{"name":"Pogradec, Albania","region":"Shqipëria Jugore","country":"Shqipëria","country_code":"al"},"geometry":{"type":"Point","coordinates":[20.65379,40.90251]}},{"type":"Feature","properties":{"name":"Rabac, Croatia","region":"Hrvatska","country":"Hrvatska","country_code":"hr"},"geometry":{"type":"Point","coordinates":[14.16279,45.07689]}},{"type":"Feature","properties":{"name":"Roses, Spain","region":"Catalunya","country":"España","country_code":"es"},"geometry":{"type":"Point","coordinates":[3.175174,42.2649]}},{"type":"Feature","properties":{"name":"Cesenatico, Italy","region":"Emilia-Romagna","country":"Italia","country_code":"it"},"geometry":{"type":"Point","coordinates":[12.3991,44.1998]}},{"type":"Feature","properties":{"name":"Beit She'an, Israel","region":"מחוז הצפון","country":"ישראל","country_code":"il"},"geometry":{"type":"Point","coordinates":[35.49877,32.49852]}},{"type":"Feature","properties":{"name":"Pulau Perhentian Kecil, Malaysia","region":"Terengganu","country":"Malaysia","country_code":"my"},"geometry":{"type":"Point","coordinates":[102.72213,5.907102]}},{"type":"Feature","properties":{"name":"Skopje, Republic of North Macedonia","region":"Северна Македонија","country":"Северна Македонија","country_code":"mk"},"geometry":{"type":"Point","coordinates":[21.431784,41.99571]}},{"type":"Feature","properties":{"name":"Olbia, Italy","region":"Sardigna/Sardegna","country":"Italia","country_code":"it"},"geometry":{"type":"Point","coordinates":[9.5003,40.922207]}},{"type":"Feature","properties":{"name":"Geneva, Switzerland","region":"Genève","country":"Schweiz/Suisse/Svizzera/Svizra","country_code":"ch"},"geometry":{"type":"Point","coordinates":[6.14569,46.20222]}},{"type":"Feature","properties":{"name":"Nuoro, Italy","region":"Sardigna/Sardegna","country":"Italia","country_code":"it"},"geometry":{"type":"Point","coordinates":[9.328958,40.32106]}},{"type":"Feature","properties":{"name":"Coimbra, Portugal","region":"Portugal","country":"Portugal","country_code":"pt"},"geometry":{"type":"Point","coordinates":[-8.447914,40.199856]}},{"type":"Feature","properties":{"name":"Argentona, Spain","region":"Catalunya","country":"España","country_code":"es"},"geometry":{"type":"Point","coordinates":[2.40371,41.55637]}},{"type":"Feature","properties":{"name":"Cervia, Italy","region":"Emilia-Romagna","country":"Italia","country_code":"it"},"geometry":{"type":"Point","coordinates":[12.362802,44.251553]}},{"type":"Feature","properties":{"name":"Vic, Spain","region":"Catalunya","country":"España","country_code":"es"},"geometry":{"type":"Point","coordinates":[2.25324,41.93392]}},{"type":"Feature","properties":{"name":"Casablanca, Morocco","region":"Casablanca-Settat ⵜⴰⴷⴷⴰⵔⵜ ⵜⵓⵎⵍⵉⵍⵜ-ⵙⵟⵟⴰⵜ الدار البيضاء-سطات","country":"Maroc ⵍⵎⵖⵔⵉⴱ المغرب","country_code":"ma"},"geometry":{"type":"Point","coordinates":[-7.61888,33.5966]}},{"type":"Feature","properties":{"name":"Utrecht, The Netherlands","region":"Utrecht","country":"Nederland","country_code":"nl"},"geometry":{"type":"Point","coordinates":[5.12555,52.09109]}},{"type":"Feature","properties":{"name":"Fuman, Iran","region":"ایران","country":"ایران","country_code":"ir"},"geometry":{"type":"Point","coordinates":[49.31065,37.222996]}},{"type":"Feature","properties":{"name":"Fes, Morocco","region":"Fès-Meknès ⴼⴰⵙ-ⵎⴽⵏⴰⵙ فاس-مكناس","country":"Maroc ⵍⵎⵖⵔⵉⴱ المغرب","country_code":"ma"},"geometry":{"type":"Point","coordinates":[-5.004349,34.026806]}},{"type":"Feature","properties":{"name":"Istanbul, Turkey","region":"Marmara Bölgesi","country":"Türkiye","country_code":"tr"},"geometry":{"type":"Point","coordinates":[28.95707,41.00986]}},{"type":"Feature","properties":{"name":"Oristano, Italy","region":"Sardigna/Sardegna","country":"Italia","country_code":"it"},"geometry":{"type":"Point","coordinates":[8.592455,39.906815]}},{"type":"Feature","properties":{"name":"Singapore, Singapore","region":"Singapore","country":"Singapore","country_code":"sg"},"geometry":{"type":"Point","coordinates":[103.85111,1.285801]}},{"type":"Feature","properties":{"name":"Ramallah, Palestinian Territories","region":"الضفة الغربية","country":"الأراضي الفلسطينية","country_code":"ps"},"geometry":{"type":"Point","coordinates":[35.20706,31.897673]}},{"type":"Feature","properties":{"name":"Leer, Germany","region":"Niedersachsen","country":"Deutschland","country_code":"de"},"geometry":{"type":"Point","coordinates":[7.44677,53.22422]}},{"type":"Feature","properties":{"name":"Alberobello, Italy","region":"Puglia","country":"Italia","country_code":"it"},"geometry":{"type":"Point","coordinates":[17.23549,40.78572]}},{"type":"Feature","properties":{"name":"Melaka, Malaysia","region":"Melaka","country":"Malaysia","country_code":"my"},"geometry":{"type":"Point","coordinates":[102.25327,2.206847]}},{"type":"Feature","properties":{"name":"La Linea de la Concepcion, Spain","region":"Andalucía","country":"España","country_code":"es"},"geometry":{"type":"Point","coordinates":[-5.343071,36.167194]}},{"type":"Feature","properties":{"name":"Nerja, Spain","region":"Andalucía","country":"España","country_code":"es"},"geometry":{"type":"Point","coordinates":[-3.8758,36.75239]}},{"type":"Feature","properties":{"name":"Venice, Italy","region":"Veneto","country":"Italia","country_code":"it"},"geometry":{"type":"Point","coordinates":[12.323647,45.439087]}},{"type":"Feature","properties":{"name":"Santa Monica, CA, USA","region":"California","country":"United States","country_code":"us"},"geometry":{"type":"Point","coordinates":[-118.49229,34.01157]}},{"type":"Feature","properties":{"name":"Aguimes, Spain","region":"Canarias","country":"España","country_code":"es"},"geometry":{"type":"Point","coordinates":[-15.444705,27.896894]}},{"type":"Feature","properties":{"name":"Tarifa, Spain","region":"Andalucía","country":"España","country_code":"es"},"geometry":{"type":"Point","coordinates":[-5.604243,36.014534]}},{"type":"Feature","properties":{"name":"Nantes, France","region":"Pays de la Loire","country":"France","country_code":"fr"},"geometry":{"type":"Point","coordinates":[-1.55306,47.21812]}},{"type":"Feature","properties":{"name":"Errachidia, Morocco","region":"Drâa-Tafilalet ⴷⴰⵔⵄⴰ-ⵜⴰⴼⵉⵍⴰⵍⵜ درعة تافيلالت","country":"Maroc ⵍⵎⵖⵔⵉⴱ المغرب","country_code":"ma"},"geometry":{"type":"Point","coordinates":[-4.435431,31.92291]}},{"type":"Feature","properties":{"name":"Bordeaux, France","region":"Nouvelle-Aquitaine","country":"France","country_code":"fr"},"geometry":{"type":"Point","coordinates":[-0.580674,44.841103]}},{"type":"Feature","properties":{"name":"Verona, Italy","region":"Veneto","country":"Italia","country_code":"it"},"geometry":{"type":"Point","coordinates":[10.9977,45.43419]}},{"type":"Feature","properties":{"name":"Carmona, Spain","region":"Andalucía","country":"España","country_code":"es"},"geometry":{"type":"Point","coordinates":[-5.64338,37.47088]}},{"type":"Feature","properties":{"name":"Marina di Camerota, Italy","region":"Campania","country":"Italia","country_code":"it"},"geometry":{"type":"Point","coordinates":[15.37159,40.00269]}},{"type":"Feature","properties":{"name":"Madrid, Spain","region":"Comunidad de Madrid","country":"España","country_code":"es"},"geometry":{"type":"Point","coordinates":[-3.700708,40.41471]}},{"type":"Feature","properties":{"name":"Bucharest, Romania","region":"România","country":"România","country_code":"ro"},"geometry":{"type":"Point","coordinates":[26.103397,44.42677]}},{"type":"Feature","properties":{"name":"Isfahan, Iran","region":"ایران","country":"ایران","country_code":"ir"},"geometry":{"type":"Point","coordinates":[51.68387,32.65086]}},{"type":"Feature","properties":{"name":"Gibraltar, Europe","region":"Gibraltar","country":"Gibraltar","country_code":"gi"},"geometry":{"type":"Point","coordinates":[-5.35291,36.14478]}},{"type":"Feature","properties":{"name":"Sofia, Bulgaria","region":"София-град","country":"България","country_code":"bg"},"geometry":{"type":"Point","coordinates":[23.321167,42.695305]}},{"type":"Feature","properties":{"name":"Ollantaytambo, Peru","region":"Cusco","country":"Perú","country_code":"pe"},"geometry":{"type":"Point","coordinates":[-72.36963,-13.21426]}},{"type":"Feature","properties":{"name":"Machu Picchu, Peru","region":"Cusco","country":"Perú","country_code":"pe"},"geometry":{"type":"Point","coordinates":[-72.53369,-13.181424]}},{"type":"Feature","properties":{"name":"Ek Balam Village, Mexico","region":"Yucatán","country":"México","country_code":"mx"},"geometry":{"type":"Point","coordinates":[-88.13716,20.8864]}},{"type":"Feature","properties":{"name":"Paracas, Peru","region":"Ica","country":"Perú","country_code":"pe"},"geometry":{"type":"Point","coordinates":[-76.24803,-13.833746]}},{"type":"Feature","properties":{"name":"La Maddalena, Italy","region":"Sardigna/Sardegna","country":"Italia","country_code":"it"},"geometry":{"type":"Point","coordinates":[9.40719,41.21251]}},{"type":"Feature","properties":{"name":"Saint Julian's, Malta","region":"Malta","country":"Malta","country_code":"mt"},"geometry":{"type":"Point","coordinates":[14.48836,35.91327]}},{"type":"Feature","properties":{"name":"Caen, France","region":"Normandie","country":"France","country_code":"fr"},"geometry":{"type":"Point","coordinates":[-0.36109,49.18438]}},{"type":"Feature","properties":{"name":"Llafranc, Spain","region":"Catalunya","country":"España","country_code":"es"},"geometry":{"type":"Point","coordinates":[3.1927,41.89556]}},{"type":"Feature","properties":{"name":"Pals, Spain","region":"Catalunya","country":"España","country_code":"es"},"geometry":{"type":"Point","coordinates":[3.148528,41.969685]}},{"type":"Feature","properties":{"name":"Taman Negara National Park, Malaysia","region":"Pahang","country":"Malaysia","country_code":"my"},"geometry":{"type":"Point","coordinates":[102.43203,4.597892]}},{"type":"Feature","properties":{"name":"Algeciras, Spain","region":"Andalucía","country":"España","country_code":"es"},"geometry":{"type":"Point","coordinates":[-5.453305,36.128807]}},{"type":"Feature","properties":{"name":"Milano Marittima, Italy","region":"Emilia-Romagna","country":"Italia","country_code":"it"},"geometry":{"type":"Point","coordinates":[12.350301,44.27591]}},{"type":"Feature","properties":{"name":"Warsaw, Poland","region":"województwo mazowieckie","country":"Polska","country_code":"pl"},"geometry":{"type":"Point","coordinates":[21.00625,52.22875]}},{"type":"Feature","properties":{"name":"Portimao, Portugal","region":"Portugal","country":"Portugal","country_code":"pt"},"geometry":{"type":"Point","coordinates":[-8.534399,37.137634]}},{"type":"Feature","properties":{"name":"L'Escala, Spain","region":"Catalunya","country":"España","country_code":"es"},"geometry":{"type":"Point","coordinates":[3.13114,42.12299]}},{"type":"Feature","properties":{"name":"Vieste, Italy","region":"Puglia","country":"Italia","country_code":"it"},"geometry":{"type":"Point","coordinates":[16.17496,41.88245]}},{"type":"Feature","properties":{"name":"Sighisoara, Romania","region":"România","country":"România","country_code":"ro"},"geometry":{"type":"Point","coordinates":[24.79456,46.22124]}},{"type":"Feature","properties":{"name":"Tarragona, Spain","region":"Catalunya","country":"España","country_code":"es"},"geometry":{"type":"Point","coordinates":[1.248222,41.116333]}},{"type":"Feature","properties":{"name":"Canazei, Italy","region":"Trentino-Alto Adige/Südtirol","country":"Italia","country_code":"it"},"geometry":{"type":"Point","coordinates":[11.768885,46.47717]}},{"type":"Feature","properties":{"name":"Tirana, Albania","region":"Shqipëria Qendrore","country":"Shqipëria","country_code":"al"},"geometry":{"type":"Point","coordinates":[19.82516,41.32233]}},{"type":"Feature","properties":{"name":"Centelles, Spain","region":"Catalunya","country":"España","country_code":"es"},"geometry":{"type":"Point","coordinates":[2.21914,41.8044]}},{"type":"Feature","properties":{"name":"Glasgow, UK","region":"Alba / Scotland","country":"United Kingdom","country_code":"gb"},"geometry":{"type":"Point","coordinates":[-4.257223,55.859673]}},{"type":"Feature","properties":{"name":"Sitges, Spain","region":"Catalunya","country":"España","country_code":"es"},"geometry":{"type":"Point","coordinates":[1.80545,41.23424]}},{"type":"Feature","properties":{"name":"Pisac, Peru","region":"Cusco","country":"Perú","country_code":"pe"},"geometry":{"type":"Point","coordinates":[-71.75478,-13.393442]}},{"type":"Feature","properties":{"name":"Montserrat, Spain","region":"Catalunya","country":"España","country_code":"es"},"geometry":{"type":"Point","coordinates":[1.838058,41.59323]}},{"type":"Feature","properties":{"name":"Palau, Italy","region":"Sardigna/Sardegna","country":"Italia","country_code":"it"},"geometry":{"type":"Point","coordinates":[9.381692,41.179825]}},{"type":"Feature","properties":{"name":"Punta Umbria, Spain","region":"Andalucía","country":"España","country_code":"es"},"geometry":{"type":"Point","coordinates":[-6.96999,37.18169]}},{"type":"Feature","properties":{"name":"Salou, Spain","region":"Catalunya","country":"España","country_code":"es"},"geometry":{"type":"Point","coordinates":[1.14211,41.07354]}},{"type":"Feature","properties":{"name":"Milan, Italy","region":"Lombardia","country":"Italia","country_code":"it"},"geometry":{"type":"Point","coordinates":[9.189092,45.464787]}},{"type":"Feature","properties":{"name":"Mantua, Italy","region":"Lombardia","country":"Italia","country_code":"it"},"geometry":{"type":"Point","coordinates":[10.79243,45.16542]}},{"type":"Feature","properties":{"name":"Erfoud, Morocco","region":"Drâa-Tafilalet ⴷⴰⵔⵄⴰ-ⵜⴰⴼⵉⵍⴰⵍⵜ درعة تافيلالت","country":"Maroc ⵍⵎⵖⵔⵉⴱ المغرب","country_code":"ma"},"geometry":{"type":"Point","coordinates":[-4.23546,31.43118]}},{"type":"Feature","properties":{"name":"Los Angeles, CA, USA","region":"California","country":"United States","country_code":"us"},"geometry":{"type":"Point","coordinates":[-118.23284,34.05106]}},{"type":"Feature","properties":{"name":"Fanano, Italy","region":"Emilia-Romagna","country":"Italia","country_code":"it"},"geometry":{"type":"Point","coordinates":[10.794667,44.208725]}},{"type":"Feature","properties":{"name":"Sant Cugat del Valles, Spain","region":"Catalunya","country":"España","country_code":"es"},"geometry":{"type":"Point","coordinates":[2.084068,41.46999]}},{"type":"Feature","properties":{"name":"Caesarea, Israel","region":"מחוז חיפה","country":"ישראל","country_code":"il"},"geometry":{"type":"Point","coordinates":[34.91549,32.478233]}},{"type":"Feature","properties":{"name":"Calella de Palafrugell, Spain","region":"Catalunya","country":"España","country_code":"es"},"geometry":{"type":"Point","coordinates":[3.184763,41.889618]}},{"type":"Feature","properties":{"name":"Acantilado de los Gigantes, Spain","region":"Canarias","country":"España","country_code":"es"},"geometry":{"type":"Point","coordinates":[-16.84165,28.24539]}},{"type":"Feature","properties":{"name":"Ein Gedi, Israel","region":"מחוז הדרום","country":"ישראל","country_code":"il"},"geometry":{"type":"Point","coordinates":[35.39131,31.457249]}},{"type":"Feature","properties":{"name":"Icod de los Vinos, Spain","region":"Canarias","country":"España","country_code":"es"},"geometry":{"type":"Point","coordinates":[-16.72048,28.3678]}},{"type":"Feature","properties":{"name":"Las Vegas, NV, USA","region":"Nevada","country":"United States","country_code":"us"},"geometry":{"type":"Point","coordinates":[-115.17208,36.114304]}},{"type":"Feature","properties":{"name":"Toulouse, France","region":"Occitanie","country":"France","country_code":"fr"},"geometry":{"type":"Point","coordinates":[1.44303,43.603947]}},{"type":"Feature","properties":{"name":"Sant Feliu de Guixols, Spain","region":"Catalunya","country":"España","country_code":"es"},"geometry":{"type":"Point","coordinates":[3.033488,41.782715]}},{"type":"Feature","properties":{"name":"Edinburgh, UK","region":"Alba / Scotland","country":"United Kingdom","country_code":"gb"},"geometry":{"type":"Point","coordinates":[-3.191557,55.955498]}},{"type":"Feature","properties":{"name":"Turin, Italy","region":"Piemonte","country":"Italia","country_code":"it"},"geometry":{"type":"Point","coordinates":[7.689138,45.059376]}},{"type":"Feature","properties":{"name":"Sassuolo, Italy","region":"Emilia-Romagna","country":"Italia","country_code":"it"},"geometry":{"type":"Point","coordinates":[10.782333,44.54118]}},{"type":"Feature","properties":{"name":"Bolzano, Italy","region":"Trentino-Alto Adige/Südtirol","country":"Italia","country_code":"it"},"geometry":{"type":"Point","coordinates":[11.354021,46.495235]}},{"type":"Feature","properties":{"name":"Faro, Portugal","region":"Portugal","country":"Portugal","country_code":"pt"},"geometry":{"type":"Point","coordinates":[-7.932307,37.016483]}},{"type":"Feature","properties":{"name":"Mersing, Malaysia","region":"Johor","country":"Malaysia","country_code":"my"},"geometry":{"type":"Point","coordinates":[103.83692,2.41956]}},{"type":"Feature","properties":{"name":"Lagos, Portugal","region":"Portugal","country":"Portugal","country_code":"pt"},"geometry":{"type":"Point","coordinates":[-8.67513,37.105007]}},{"type":"Feature","properties":{"name":"San Juan Teotihuacan, Mexico","region":"Estado de México","country":"México","country_code":"mx"},"geometry":{"type":"Point","coordinates":[-98.88936,19.68608]}},{"type":"Feature","properties":{"name":"Rasht, Iran","region":"ایران","country":"ایران","country_code":"ir"},"geometry":{"type":"Point","coordinates":[49.59309,37.27253]}},{"type":"Feature","properties":{"name":"Kumasi, Ghana","region":"Ashanti Region","country":"Ghana","country_code":"gh"},"geometry":{"type":"Point","coordinates":[-1.62985,6.69746]}},{"type":"Feature","properties":{"name":"El Masnou, Spain","region":"Catalunya","country":"España","country_code":"es"},"geometry":{"type":"Point","coordinates":[2.31881,41.4789]}},{"type":"Feature","properties":{"name":"Teno Alto, Spain","region":"Canarias","country":"España","country_code":"es"},"geometry":{"type":"Point","coordinates":[-16.87743,28.34151]}},{"type":"Feature","properties":{"name":"Vienna, Austria","region":"Österreich","country":"Österreich","country_code":"at"},"geometry":{"type":"Point","coordinates":[16.372383,48.208862]}},{"type":"Feature","properties":{"name":"Marsaxlokk, Malta","region":"Malta","country":"Malta","country_code":"mt"},"geometry":{"type":"Point","coordinates":[14.543023,35.840054]}},{"type":"Feature","properties":{"name":"Grand Canyon National Park, AZ, USA","region":"Arizona","country":"United States","country_code":"us"},"geometry":{"type":"Point","coordinates":[-112.11431,36.097248]}},{"type":"Feature","properties":{"name":"Mdina, Malta","region":"Malta","country":"Malta","country_code":"mt"},"geometry":{"type":"Point","coordinates":[14.401739,35.88616]}},{"type":"Feature","properties":{"name":"Boumalne Dades, Morocco","region":"Drâa-Tafilalet ⴷⴰⵔⵄⴰ-ⵜⴰⴼⵉⵍⴰⵍⵜ درعة تافيلالت","country":"Maroc ⵍⵎⵖⵔⵉⴱ المغرب","country_code":"ma"},"geometry":{"type":"Point","coordinates":[-5.9832,31.36765]}},{"type":"Feature","properties":{"name":"Mosta, Malta","region":"Malta","country":"Malta","country_code":"mt"},"geometry":{"type":"Point","coordinates":[14.425695,35.909527]}},{"type":"Feature","properties":{"name":"Sliema, Malta","region":"Malta","country":"Malta","country_code":"mt"},"geometry":{"type":"Point","coordinates":[14.503581,35.912502]}},{"type":"Feature","properties":{"name":"Valletta, Malta","region":"Malta","country":"Malta","country_code":"mt"},"geometry":{"type":"Point","coordinates":[14.514553,35.898907]}},{"type":"Feature","properties":{"name":"Acre, Israel","region":"מחוז הצפון","country":"ישראל","country_code":"il"},"geometry":{"type":"Point","coordinates":[35.08272,32.9381]}},{"type":"Feature","properties":{"name":"Arad, Israel","region":"מחוז הדרום","country":"ישראל","country_code":"il"},"geometry":{"type":"Point","coordinates":[35.207657,31.25458]}},{"type":"Feature","properties":{"name":"Death Valley National Park, CA, USA","region":"California","country":"United States","country_code":"us"},"geometry":{"type":"Point","coordinates":[-117.02394,36.52588]}},{"type":"Feature","properties":{"name":"Playa del Ingles, Spain","region":"Canarias","country":"España","country_code":"es"},"geometry":{"type":"Point","coordinates":[-15.585548,27.764042]}},{"type":"Feature","properties":{"name":"Techiman, Ghana","region":"Bono East Region","country":"Ghana","country_code":"gh"},"geometry":{"type":"Point","coordinates":[-1.94233,7.59067]}},{"type":"Feature","properties":{"name":"Palamos, Spain","region":"Catalunya","country":"España","country_code":"es"},"geometry":{"type":"Point","coordinates":[3.12871,41.847954]}},{"type":"Feature","properties":{"name":"Mont-rebei gorge","region":"Catalunya","country":"España","country_code":"es"},"geometry":{"type":"Point","coordinates":[0.693345399999998,42.096244]}},{"type":"Feature","properties":{"name":"Praia do Vao","region":"Galicia","country":"España","country_code":"es"},"geometry":{"type":"Point","coordinates":[-8.79185199737549,42.1982578965255]}},{"type":"Feature","properties":{"name":"Praia da Fontaíña","region":"Galicia","country":"España","country_code":"es"},"geometry":{"type":"Point","coordinates":[-8.78639101982117,42.199839566578]}},{"type":"Feature","properties":{"name":"Vigo","region":"Galicia","country":"España","country_code":"es"},"geometry":{"type":"Point","coordinates":[-8.7207268,42.2405989]}},{"type":"Feature","properties":{"name":"Illas Cíes","region":"Galicia","country":"España","country_code":"es"},"geometry":{"type":"Point","coordinates":[-8.90544891357422,42.2211445381761]}},{"type":"Feature","properties":{"name":"Pontevedra","region":"Galicia","country":"España","country_code":"es"},"geometry":{"type":"Point","coordinates":[-8.6446202,42.4298846]}},{"type":"Feature","properties":{"name":"Combarro","region":"Galicia","country":"España","country_code":"es"},"geometry":{"type":"Point","coordinates":[-8.7067378,42.4305807]}},{"type":"Feature","properties":{"name":"Santiago de Compostela","region":"Galicia","country":"España","country_code":"es"},"geometry":{"type":"Point","coordinates":[-8.5448445,42.8782132]}},{"type":"Feature","properties":{"name":"El Pont de Suert","region":"Catalunya","country":"España","country_code":"es"},"geometry":{"type":"Point","coordinates":[0.7408063,42.4080464]}},{"type":"Feature","properties":{"name":"Vielha","region":"Catalunya","country":"España","country_code":"es"},"geometry":{"type":"Point","coordinates":[0.7932456,42.7030131]}},{"type":"Feature","properties":{"name":"Salardú","region":"Catalunya","country":"España","country_code":"es"},"geometry":{"type":"Point","coordinates":[0.9010216,42.7070256]}},{"type":"Feature","properties":{"name":"Tredós","region":"Catalunya","country":"España","country_code":"es"},"geometry":{"type":"Point","coordinates":[0.9155033,42.7018266]}},{"type":"Feature","properties":{"name":"Bagergue","region":"Catalunya","country":"España","country_code":"es"},"geometry":{"type":"Point","coordinates":[0.9155033,42.7189321]}},{"type":"Feature","properties":{"name":"Circ de Colomèrs","region":"Catalunya","country":"España","country_code":"es"},"geometry":{"type":"Point","coordinates":[0.926373302936554,42.6280523859081]}},{"type":"Feature","properties":{"name":"Aparcamiento de los Banhs de Tredós","region":"Catalunya","country":"España","country_code":"es"},"geometry":{"type":"Point","coordinates":[0.928071141242981,42.6557942760802]}},{"type":"Feature","properties":{"name":"Lac Long","region":"Catalunya","country":"España","country_code":"es"},"geometry":{"type":"Point","coordinates":[0.933211594820023,42.6225752526031]}},{"type":"Feature","properties":{"name":"Estanh Plan","region":"Catalunya","country":"España","country_code":"es"},"geometry":{"type":"Point","coordinates":[0.929271429777145,42.6213908041796]}},{"type":"Feature","properties":{"name":"Lac Major de Colomers","region":"Catalunya","country":"España","country_code":"es"},"geometry":{"type":"Point","coordinates":[0.92251293361187,42.6244094872496]}},{"type":"Feature","properties":{"name":"Sant Maurici d'Espot","region":"Catalunya","country":"España","country_code":"es"},"geometry":{"type":"Point","coordinates":[1.0142281,42.5816588]}},{"type":"Feature","properties":{"name":"Refugi amitges","region":"Catalunya","country":"España","country_code":"es"},"geometry":{"type":"Point","coordinates":[0.9846691,42.5966578]}},{"type":"Feature","properties":{"name":"Estany de Ratera","region":"Catalunya","country":"España","country_code":"es"},"geometry":{"type":"Point","coordinates":[0.991733372211456,42.5896337129426]}},{"type":"Feature","properties":{"name":"La Seu d'Urgell","region":"Catalunya","country":"España","country_code":"es"},"geometry":{"type":"Point","coordinates":[1.4555525,42.3575784]}},{"type":"Feature","properties":{"name":"Athens","region":"Αποκεντρωμένη Διοίκηση Αττικής","country":"Ελλάς","country_code":"gr"},"geometry":{"type":"Point","coordinates":[23.7275388,37.9838096]}},{"type":"Feature","properties":{"name":"Taipei","region":"臺灣","country":"臺灣","country_code":"tw"},"geometry":{"type":"Point","coordinates":[121.5654177,25.0329694]}},{"type":"Feature","properties":{"name":"Auckland","region":"Auckland","country":"New Zealand / Aotearoa","country_code":"nz"},"geometry":{"type":"Point","coordinates":[174.7633315,-36.8484597]}},{"type":"Feature","properties":{"name":"Te Whanganui-A-Hei Marine Reserve","region":"Waikato","country":"New Zealand / Aotearoa","country_code":"nz"},"geometry":{"type":"Point","coordinates":[175.7903459,-36.827535]}},{"type":"Feature","properties":{"name":"Karangahake gorge","region":"Waikato","country":"New Zealand / Aotearoa","country_code":"nz"},"geometry":{"type":"Point","coordinates":[175.7208923,-37.422528]}},{"type":"Feature","properties":{"name":"Hobbiton™ Movie Set Tours","region":"Waikato","country":"New Zealand / Aotearoa","country_code":"nz"},"geometry":{"type":"Point","coordinates":[175.6833613,-37.8723441]}},{"type":"Feature","properties":{"name":"Rotorua","region":"Bay of Plenty","country":"New Zealand / Aotearoa","country_code":"nz"},"geometry":{"type":"Point","coordinates":[176.2497461,-38.1368478]}},{"type":"Feature","properties":{"name":"Wai-O-Tapu","region":"Waikato","country":"New Zealand / Aotearoa","country_code":"nz"},"geometry":{"type":"Point","coordinates":[176.3689844,-38.358256]}},{"type":"Feature","properties":{"name":"Lower Tama Lake","region":"Waikato","country":"New Zealand / Aotearoa","country_code":"nz"},"geometry":{"type":"Point","coordinates":[175.6067168,-39.2013518]}},{"type":"Feature","properties":{"name":"Upper Tama Lake","region":"Waikato","country":"New Zealand / Aotearoa","country_code":"nz"},"geometry":{"type":"Point","coordinates":[175.6216854,-39.185095]}},{"type":"Feature","properties":{"name":"Putangirua Pinnacles","region":"Wellington","country":"New Zealand / Aotearoa","country_code":"nz"},"geometry":{"type":"Point","coordinates":[175.2479571,-41.4455377]}},{"type":"Feature","properties":{"name":"Rivendell","region":"Manawatū-Whanganui","country":"New Zealand / Aotearoa","country_code":"nz"},"geometry":{"type":"Point","coordinates":[175.3965454,-39.3355512]}},{"type":"Feature","properties":{"name":"Wellington","region":"Wellington","country":"New Zealand / Aotearoa","country_code":"nz"},"geometry":{"type":"Point","coordinates":[174.776236,-41.2864603]}},{"type":"Feature","properties":{"name":"Rivendell","region":"Wellington","country":"New Zealand / Aotearoa","country_code":"nz"},"geometry":{"type":"Point","coordinates":[175.1934093,-41.0573269]}},{"type":"Feature","properties":{"name":"Marahau","region":"Tasman","country":"New Zealand / Aotearoa","country_code":"nz"},"geometry":{"type":"Point","coordinates":[173.0088963,-41.0077925]}},{"type":"Feature","properties":{"name":"Abel Tasman National Park","region":"Tasman","country":"New Zealand / Aotearoa","country_code":"nz"},"geometry":{"type":"Point","coordinates":[173.0013919,-40.8223808]}},{"type":"Feature","properties":{"name":"Wharariki Beach","region":"Tasman","country":"New Zealand / Aotearoa","country_code":"nz"},"geometry":{"type":"Point","coordinates":[172.679071426392,-40.502966325199]}},{"type":"Feature","properties":{"name":"Puponga","region":"Tasman","country":"New Zealand / Aotearoa","country_code":"nz"},"geometry":{"type":"Point","coordinates":[172.7337838,-40.5247635]}},{"type":"Feature","properties":{"name":"Hokitika Gorge","region":"West Coast","country":"New Zealand / Aotearoa","country_code":"nz"},"geometry":{"type":"Point","coordinates":[171.0167027,-42.9555823]}},{"type":"Feature","properties":{"name":"Fox Glacier","region":"West Coast","country":"New Zealand / Aotearoa","country_code":"nz"},"geometry":{"type":"Point","coordinates":[170.0175878,-43.4644799]}},{"type":"Feature","properties":{"name":"Huka Falls","region":"Waikato","country":"New Zealand / Aotearoa","country_code":"nz"},"geometry":{"type":"Point","coordinates":[176.090068817139,-38.6486511255858]}},{"type":"Feature","properties":{"name":"Lake Taupo","region":"Waikato","country":"New Zealand / Aotearoa","country_code":"nz"},"geometry":{"type":"Point","coordinates":[175.9150389,-38.791557]}},{"type":"Feature","properties":{"name":"Queen Charlotte Drive","region":"Marlborough","country":"New Zealand / Aotearoa","country_code":"nz"},"geometry":{"type":"Point","coordinates":[173.8864604,-41.2899736]}},{"type":"Feature","properties":{"name":"Kaikoura","region":"Canterbury","country":"New Zealand / Aotearoa","country_code":"nz"},"geometry":{"type":"Point","coordinates":[173.681386,-42.4008174]}},{"type":"Feature","properties":{"name":"Christchurch","region":"Canterbury","country":"New Zealand / Aotearoa","country_code":"nz"},"geometry":{"type":"Point","coordinates":[172.6362254,-43.5320544]}},{"type":"Feature","properties":{"name":"Lake Wanaka","region":"Otago","country":"New Zealand / Aotearoa","country_code":"nz"},"geometry":{"type":"Point","coordinates":[169.1262926,-44.5276371]}},{"type":"Feature","properties":{"name":"Isthmus Peak","region":"Otago","country":"New Zealand / Aotearoa","country_code":"nz"},"geometry":{"type":"Point","coordinates":[169.2,-44.4666667]}},{"type":"Feature","properties":{"name":"Blue Pools Track","region":"Otago","country":"New Zealand / Aotearoa","country_code":"nz"},"geometry":{"type":"Point","coordinates":[169.2767831,-44.1641715]}},{"type":"Feature","properties":{"name":"Milford Sound","region":"Southland","country":"New Zealand / Aotearoa","country_code":"nz"},"geometry":{"type":"Point","coordinates":[167.8973801,-44.6414024]}},{"type":"Feature","properties":{"name":"Key Summit","region":"Southland","country":"New Zealand / Aotearoa","country_code":"nz"},"geometry":{"type":"Point","coordinates":[168.1280494,-44.8159566]}},{"type":"Feature","properties":{"name":"Te Anau","region":"Southland","country":"New Zealand / Aotearoa","country_code":"nz"},"geometry":{"type":"Point","coordinates":[167.718053,-45.4144515]}},{"type":"Feature","properties":{"name":"Lake Marian","region":"Southland","country":"New Zealand / Aotearoa","country_code":"nz"},"geometry":{"type":"Point","coordinates":[168.0754035,-44.7860174]}},{"type":"Feature","properties":{"name":"Lumsden","region":"Southland","country":"New Zealand / Aotearoa","country_code":"nz"},"geometry":{"type":"Point","coordinates":[168.4417214,-45.739785]}},{"type":"Feature","properties":{"name":"Queenstown","region":"Otago","country":"New Zealand / Aotearoa","country_code":"nz"},"geometry":{"type":"Point","coordinates":[168.6626435,-45.0311622]}},{"type":"Feature","properties":{"name":"Glenorchy","region":"Otago","country":"New Zealand / Aotearoa","country_code":"nz"},"geometry":{"type":"Point","coordinates":[168.3881969,-44.8505503]}},{"type":"Feature","properties":{"name":"Arrowtown","region":"Otago","country":"New Zealand / Aotearoa","country_code":"nz"},"geometry":{"type":"Point","coordinates":[168.8358624,-44.9416876]}},{"type":"Feature","properties":{"name":"Twizel","region":"Canterbury","country":"New Zealand / Aotearoa","country_code":"nz"},"geometry":{"type":"Point","coordinates":[170.1042942,-44.2599014]}},{"type":"Feature","properties":{"name":"Pukaki","region":"Canterbury","country":"New Zealand / Aotearoa","country_code":"nz"},"geometry":{"type":"Point","coordinates":[170.1425766,-44.1908648]}},{"type":"Feature","properties":{"name":"Lake Pukaki","region":"Canterbury","country":"New Zealand / Aotearoa","country_code":"nz"},"geometry":{"type":"Point","coordinates":[170.1651854,-44.0696731]}},{"type":"Feature","properties":{"name":"Lake Tekapo","region":"Canterbury","country":"New Zealand / Aotearoa","country_code":"nz"},"geometry":{"type":"Point","coordinates":[170.4771212,-44.0046736]}},{"type":"Feature","properties":{"name":"Mount Sunday","region":"Canterbury","country":"New Zealand / Aotearoa","country_code":"nz"},"geometry":{"type":"Point","coordinates":[170.8929455,-43.5479716]}},{"type":"Feature","properties":{"name":"Hooker Valley track","region":"Canterbury","country":"New Zealand / Aotearoa","country_code":"nz"},"geometry":{"type":"Point","coordinates":[170.0939684,-43.7181257]}},{"type":"Feature","properties":{"name":"Tasman Lake","region":"Canterbury","country":"New Zealand / Aotearoa","country_code":"nz"},"geometry":{"type":"Point","coordinates":[170.1847167,-43.6762963]}},{"type":"Feature","properties":{"name":"Pulau Ubin","region":"Singapore","country":"Singapore","country_code":"sg"},"geometry":{"type":"Point","coordinates":[103.9577334,1.4125659]}},{"type":"Feature","properties":{"name":"Altafulla","region":"Catalunya","country":"España","country_code":"es"},"geometry":{"type":"Point","coordinates":[1.3776889,41.1408587]}},{"type":"Feature","properties":{"name":"Museu del Ciment Asland de Castellar de n'Hug","region":"Catalunya","country":"España","country_code":"es"},"geometry":{"type":"Point","coordinates":[1.9784866,42.2603053]}},{"type":"Feature","properties":{"name":"Bagà","region":"Catalunya","country":"España","country_code":"es"},"geometry":{"type":"Point","coordinates":[1.861711,42.25262]}},{"type":"Feature","properties":{"name":"Santuari de Santa Maria de Montgrony","region":"Catalunya","country":"España","country_code":"es"},"geometry":{"type":"Point","coordinates":[2.0858839,42.2657613]}},{"type":"Feature","properties":{"name":"Sant Pere de Montgrony","region":"Catalunya","country":"España","country_code":"es"},"geometry":{"type":"Point","coordinates":[2.085727,42.2663421]}},{"type":"Feature","properties":{"name":"Rupit","region":"Catalunya","country":"España","country_code":"es"},"geometry":{"type":"Point","coordinates":[2.4655228,42.0245042]}},{"type":"Feature","properties":{"name":"Procida","region":"Campania","country":"Italia","country_code":"it"},"geometry":{"type":"Point","coordinates":[14.0309545,40.7622633]}},{"type":"Feature","properties":{"name":"Underwater Archaeological Park of Baia","region":"Italia","country":"Italia","country_code":"it"},"geometry":{"type":"Point","coordinates":[14.077725,40.8212403]}},{"type":"Feature","properties":{"name":"Pompeii Archaeological Park","region":"Campania","country":"Italia","country_code":"it"},"geometry":{"type":"Point","coordinates":[14.4820746,40.7482435]}},{"type":"Feature","properties":{"name":"Positano","region":"Campania","country":"Italia","country_code":"it"},"geometry":{"type":"Point","coordinates":[14.4849812,40.6280528]}},{"type":"Feature","properties":{"name":"Sorrento","region":"Campania","country":"Italia","country_code":"it"},"geometry":{"type":"Point","coordinates":[14.3757985,40.6262925]}},{"type":"Feature","properties":{"name":"Amalfi","region":"Campania","country":"Italia","country_code":"it"},"geometry":{"type":"Point","coordinates":[14.6026805,40.6340026]}},{"type":"Feature","properties":{"name":"Ciutadella de Menorca","region":"Illes Balears","country":"España","country_code":"es"},"geometry":{"type":"Point","coordinates":[3.8389047,39.9991163]}},{"type":"Feature","properties":{"name":"Mahón","region":"Illes Balears","country":"España","country_code":"es"},"geometry":{"type":"Point","coordinates":[4.2596195,39.8873296]}},{"type":"Feature","properties":{"name":"Cala Blanca","region":"Illes Balears","country":"España","country_code":"es"},"geometry":{"type":"Point","coordinates":[3.8334817,39.9717848]}},{"type":"Feature","properties":{"name":"Cala Pregonda","region":"España","country":"España","country_code":"es"},"geometry":{"type":"Point","coordinates":[4.0423301,40.0563102]}},{"type":"Feature","properties":{"name":"Cape Cavalleria Lighthouse","region":"Illes Balears","country":"España","country_code":"es"},"geometry":{"type":"Point","coordinates":[4.0924077,40.0889282]}},{"type":"Feature","properties":{"name":"Platja de Cavalleria","region":"Illes Balears","country":"España","country_code":"es"},"geometry":{"type":"Point","coordinates":[4.0768348,40.0597371]}},{"type":"Feature","properties":{"name":"Cala Mitjana","region":"España","country":"España","country_code":"es"},"geometry":{"type":"Point","coordinates":[3.9713948,39.93376]}},{"type":"Feature","properties":{"name":"Cala Trebalúger","region":"España","country":"España","country_code":"es"},"geometry":{"type":"Point","coordinates":[3.9848928,39.9281674]}},{"type":"Feature","properties":{"name":"Cala en Turqueta","region":"España","country":"España","country_code":"es"},"geometry":{"type":"Point","coordinates":[3.9148662,39.9310593]}},{"type":"Feature","properties":{"name":"Binibeca","region":"Illes Balears","country":"España","country_code":"es"},"geometry":{"type":"Point","coordinates":[4.2423075,39.8204251]}},{"type":"Feature","properties":{"name":"Binidalí","region":"Illes Balears","country":"España","country_code":"es"},"geometry":{"type":"Point","coordinates":[4.1935844,39.8361729]}},{"type":"Feature","properties":{"name":"Sant Lluís","region":"Illes Balears","country":"España","country_code":"es"},"geometry":{"type":"Point","coordinates":[4.2576916,39.8506817]}},{"type":"Feature","properties":{"name":"Cala Alcaufar","region":"Illes Balears","country":"España","country_code":"es"},"geometry":{"type":"Point","coordinates":[4.29258316755295,39.8289004853243]}},{"type":"Feature","properties":{"name":"Platja de Cala Galdana","region":"Illes Balears","country":"España","country_code":"es"},"geometry":{"type":"Point","coordinates":[3.95982563495636,39.9382335914817]}},{"type":"Feature","properties":{"name":"Blanes","region":"Catalunya","country":"España","country_code":"es"},"geometry":{"type":"Point","coordinates":[2.7902289,41.6759954]}},{"type":"Feature","properties":{"name":"Huesca","region":"Aragón","country":"España","country_code":"es"},"geometry":{"type":"Point","coordinates":[-0.4078058,42.131845]}},{"type":"Feature","properties":{"name":"Monasterio nuevo de San Juan de la peña","region":"Aragón","country":"España","country_code":"es"},"geometry":{"type":"Point","coordinates":[-0.6663411,42.5083074]}},{"type":"Feature","properties":{"name":"Gaztelugatxeko Doniene","region":"Euskadi","country":"España","country_code":"es"},"geometry":{"type":"Point","coordinates":[-2.7853101,43.4471185]}},{"type":"Feature","properties":{"name":"Santa Cruz de la Serós","region":"Aragón","country":"España","country_code":"es"},"geometry":{"type":"Point","coordinates":[-0.6740433,42.522933]}},{"type":"Feature","properties":{"name":"Pamplona","region":"Navarra / Nafarroa","country":"España","country_code":"es"},"geometry":{"type":"Point","coordinates":[-1.6457745,42.812526]}},{"type":"Feature","properties":{"name":"Cave of Altamira","region":"Cantabria","country":"España","country_code":"es"},"geometry":{"type":"Point","coordinates":[-4.122347,43.377452]}},{"type":"Feature","properties":{"name":"Llanes","region":"Asturias / Asturies","country":"España","country_code":"es"},"geometry":{"type":"Point","coordinates":[-4.7562159,43.4211483]}},{"type":"Feature","properties":{"name":"Playa de Poo","region":"España","country":"España","country_code":"es"},"geometry":{"type":"Point","coordinates":[-4.7842527,43.4289578]}},{"type":"Feature","properties":{"name":"Po","region":"Asturias / Asturies","country":"España","country_code":"es"},"geometry":{"type":"Point","coordinates":[-4.7825354,43.4247995]}},{"type":"Feature","properties":{"name":"Gijón","region":"Asturias / Asturies","country":"España","country_code":"es"},"geometry":{"type":"Point","coordinates":[-5.6611195,43.5322015]}},{"type":"Feature","properties":{"name":"Lakes of Covadonga","region":"Asturias / Asturies","country":"España","country_code":"es"},"geometry":{"type":"Point","coordinates":[-4.9919907,43.2718565]}},{"type":"Feature","properties":{"name":"Cangas de Onís","region":"Asturias / Asturies","country":"España","country_code":"es"},"geometry":{"type":"Point","coordinates":[-5.1310133,43.3506251]}},{"type":"Feature","properties":{"name":"Covadonga","region":"Asturias / Asturies","country":"España","country_code":"es"},"geometry":{"type":"Point","coordinates":[-5.0593809,43.3123308]}},{"type":"Feature","properties":{"name":"Oviedo","region":"Asturias / Asturies","country":"España","country_code":"es"},"geometry":{"type":"Point","coordinates":[-5.8493887,43.3619145]}},{"type":"Feature","properties":{"name":"Lighthouse Cabo Peñas","region":"Asturias / Asturies","country":"España","country_code":"es"},"geometry":{"type":"Point","coordinates":[-5.8485276,43.6556145]}},{"type":"Feature","properties":{"name":"Cudillero","region":"Asturias / Asturies","country":"España","country_code":"es"},"geometry":{"type":"Point","coordinates":[-6.148421,43.5600016]}},{"type":"Feature","properties":{"name":"Silence Beach","region":"España","country":"España","country_code":"es"},"geometry":{"type":"Point","coordinates":[-6.2968588,43.565781]}},{"type":"Feature","properties":{"name":"Aviles","region":"Asturias / Asturies","country":"España","country_code":"es"},"geometry":{"type":"Point","coordinates":[-5.9246653,43.5579523]}},{"type":"Feature","properties":{"name":"Laboral Ciudad de la Cultura","region":"Asturias / Asturies","country":"España","country_code":"es"},"geometry":{"type":"Point","coordinates":[-5.614514,43.5243331]}},{"type":"Feature","properties":{"name":"Ribadesella","region":"Asturias / Asturies","country":"España","country_code":"es"},"geometry":{"type":"Point","coordinates":[-5.056138,43.4630834]}},{"type":"Feature","properties":{"name":"Castro Urdiales","region":"Cantabria","country":"España","country_code":"es"},"geometry":{"type":"Point","coordinates":[-3.2156354,43.3688221]}},{"type":"Feature","properties":{"name":"Olite","region":"Navarra / Nafarroa","country":"España","country_code":"es"},"geometry":{"type":"Point","coordinates":[-1.6509768,42.481425]}},{"type":"Feature","properties":{"name":"Almudévar","region":"Aragón","country":"España","country_code":"es"},"geometry":{"type":"Point","coordinates":[-0.5813527,42.0433113]}},{"type":"Feature","properties":{"name":"Cervera","region":"Catalunya","country":"España","country_code":"es"},"geometry":{"type":"Point","coordinates":[1.2794744,41.6838422]}},{"type":"Feature","properties":{"name":"Rhodes","region":"Αποκεντρωμένη Διοίκηση Αιγαίου","country":"Ελλάς","country_code":"gr"},"geometry":{"type":"Point","coordinates":[28.2174829,36.4349631]}},{"type":"Feature","properties":{"name":"Point 454","region":"Αποκεντρωμένη Διοίκηση Αιγαίου","country":"Ελλάς","country_code":"gr"},"geometry":{"type":"Point","coordinates":[28.1979988,36.3249918]}},{"type":"Feature","properties":{"name":"Parco Termale del Garda","region":"Veneto","country":"Italia","country_code":"it"},"geometry":{"type":"Point","coordinates":[10.749035,45.4725164]}},{"type":"Feature","properties":{"name":"Peschiera del Garda","region":"Veneto","country":"Italia","country_code":"it"},"geometry":{"type":"Point","coordinates":[10.6865449,45.4396385]}},{"type":"Feature","properties":{"name":"Sirmione","region":"Lombardia","country":"Italia","country_code":"it"},"geometry":{"type":"Point","coordinates":[10.6053754,45.4969717]}},{"type":"Feature","properties":{"name":"Lindos","region":"Αποκεντρωμένη Διοίκηση Αιγαίου","country":"Ελλάς","country_code":"gr"},"geometry":{"type":"Point","coordinates":[28.0856654,36.0918486]}},{"type":"Feature","properties":{"name":"Ano Symi","region":"Αποκεντρωμένη Διοίκηση Αιγαίου","country":"Ελλάς","country_code":"gr"},"geometry":{"type":"Point","coordinates":[27.8359617,36.6156541]}},{"type":"Feature","properties":{"name":"Sacred Monastery of Saint Archangel Michael the Panormitis","region":"Αποκεντρωμένη Διοίκηση Αιγαίου","country":"Ελλάς","country_code":"gr"},"geometry":{"type":"Point","coordinates":[27.8463102,36.5482454]}},{"type":"Feature","properties":{"name":"Ammán","region":"عمان","country":"الأردن","country_code":"jo"},"geometry":{"type":"Point","coordinates":[35.910635,31.9539494]}},{"type":"Feature","properties":{"name":"Gerasa","region":"جرش","country":"الأردن","country_code":"jo"},"geometry":{"type":"Point","coordinates":[35.8960765,32.2746515]}},{"type":"Feature","properties":{"name":"Wadi Musa","region":"معان","country":"الأردن","country_code":"jo"},"geometry":{"type":"Point","coordinates":[35.4801251,30.3216354]}},{"type":"Feature","properties":{"name":"Petra Archaeological Park","region":"معان","country":"الأردن","country_code":"jo"},"geometry":{"type":"Point","coordinates":[35.4689776,30.3276953]}},{"type":"Feature","properties":{"name":"Wadi Rum Village","region":"العقبة","country":"الأردن","country_code":"jo"},"geometry":{"type":"Point","coordinates":[35.4210371,29.5742989]}},{"type":"Feature","properties":{"name":"Áqaba","region":"العقبة","country":"الأردن","country_code":"jo"},"geometry":{"type":"Point","coordinates":[35.0063209,29.5320522]}},{"type":"Feature","properties":{"name":"Castillo de Karak","region":"الكرك","country":"الأردن","country_code":"jo"},"geometry":{"type":"Point","coordinates":[35.701662,31.1809559]}},{"type":"Feature","properties":{"name":"Pantà de la Baells","region":"Catalunya","country":"España","country_code":"es"},"geometry":{"type":"Point","coordinates":[1.87838,42.1219054]}},{"type":"Feature","properties":{"name":"Sant Julià de Cerdanyola","region":"Catalunya","country":"España","country_code":"es"},"geometry":{"type":"Point","coordinates":[1.8919141,42.22347]}},{"type":"Feature","properties":{"name":"Praia da Vitória","region":"Portugal","country":"Portugal","country_code":"pt"},"geometry":{"type":"Point","coordinates":[-27.0646976,38.7339162]}},{"type":"Feature","properties":{"name":"Angra do Heroísmo","region":"Portugal","country":"Portugal","country_code":"pt"},"geometry":{"type":"Point","coordinates":[-27.2293969,38.6635375]}},{"type":"Feature","properties":{"name":"Algar do Carvão","region":"Portugal","country":"Portugal","country_code":"pt"},"geometry":{"type":"Point","coordinates":[-27.2158897,38.7280879]}},{"type":"Feature","properties":{"name":"Gruta do Natal","region":"Portugal","country":"Portugal","country_code":"pt"},"geometry":{"type":"Point","coordinates":[-27.2684469,38.7374102]}},{"type":"Feature","properties":{"name":"Furnas do Enxofre","region":"Portugal","country":"Portugal","country_code":"pt"},"geometry":{"type":"Point","coordinates":[-27.2309531,38.729073]}},{"type":"Feature","properties":{"name":"Mistérios Negros Trailhead","region":"Portugal","country":"Portugal","country_code":"pt"},"geometry":{"type":"Point","coordinates":[-27.2693402,38.7372194]}},{"type":"Feature","properties":{"name":"Monte Brasil","region":"Portugal","country":"Portugal","country_code":"pt"},"geometry":{"type":"Point","coordinates":[-27.2244844,38.6514217]}},{"type":"Feature","properties":{"name":"Calheta","region":"Portugal","country":"Portugal","country_code":"pt"},"geometry":{"type":"Point","coordinates":[-28.0193407,38.6020497]}},{"type":"Feature","properties":{"name":"Velas","region":"Portugal","country":"Portugal","country_code":"pt"},"geometry":{"type":"Point","coordinates":[-28.2131879,38.6839843]}},{"type":"Feature","properties":{"name":"Miradouro da Serra do Cume","region":"Portugal","country":"Portugal","country_code":"pt"},"geometry":{"type":"Point","coordinates":[-27.1121754,38.7094629]}},{"type":"Feature","properties":{"name":"Fajã dos Cubres","region":"Portugal","country":"Portugal","country_code":"pt"},"geometry":{"type":"Point","coordinates":[-27.9658839,38.6423083]}},{"type":"Feature","properties":{"name":"Faja da Caldeira Santo Cristo","region":"Portugal","country":"Portugal","country_code":"pt"},"geometry":{"type":"Point","coordinates":[-27.9302907,38.6278032]}},{"type":"Feature","properties":{"name":"Serra do Topo","region":"Portugal","country":"Portugal","country_code":"pt"},"geometry":{"type":"Point","coordinates":[-27.9266858,38.5972933]}},{"type":"Feature","properties":{"name":"Rosais","region":"Portugal","country":"Portugal","country_code":"pt"},"geometry":{"type":"Point","coordinates":[-28.2519314,38.7191234]}},{"type":"Feature","properties":{"name":"Parque Florestal das Sete Fontes","region":"Portugal","country":"Portugal","country_code":"pt"},"geometry":{"type":"Point","coordinates":[-28.2623583,38.7355165]}},{"type":"Feature","properties":{"name":"Horta","region":"Portugal","country":"Portugal","country_code":"pt"},"geometry":{"type":"Point","coordinates":[-28.6299812,38.5348447]}},{"type":"Feature","properties":{"name":"Caldeira","region":"Portugal","country":"Portugal","country_code":"pt"},"geometry":{"type":"Point","coordinates":[-28.716885,38.5833934]}},{"type":"Feature","properties":{"name":"Monte da Guia","region":"Portugal","country":"Portugal","country_code":"pt"},"geometry":{"type":"Point","coordinates":[-28.627766,38.5204042]}},{"type":"Feature","properties":{"name":"Miradouro do Morro Das Velas","region":"Portugal","country":"Portugal","country_code":"pt"},"geometry":{"type":"Point","coordinates":[-28.2178309,38.6824882]}},{"type":"Feature","properties":{"name":"Capelinhos","region":"Portugal","country":"Portugal","country_code":"pt"},"geometry":{"type":"Point","coordinates":[-28.8316511,38.6014438]}},{"type":"Feature","properties":{"name":"Ponta Delgada","region":"Portugal","country":"Portugal","country_code":"pt"},"geometry":{"type":"Point","coordinates":[-25.6686725,37.7394207]}},{"type":"Feature","properties":{"name":"Sete Cidades","region":"Portugal","country":"Portugal","country_code":"pt"},"geometry":{"type":"Point","coordinates":[-25.7944989,37.8589492]}},{"type":"Feature","properties":{"name":"Miradouro da Vista do Rei","region":"Portugal","country":"Portugal","country_code":"pt"},"geometry":{"type":"Point","coordinates":[-25.7948913,37.839233]}},{"type":"Feature","properties":{"name":"Monte Palace hotel ruins","region":"Portugal","country":"Portugal","country_code":"pt"},"geometry":{"type":"Point","coordinates":[-25.7941171,37.8389219]}},{"type":"Feature","properties":{"name":"Miradouro da Boca do Inferno","region":"Portugal","country":"Portugal","country_code":"pt"},"geometry":{"type":"Point","coordinates":[-25.7633401,37.8429597]}},{"type":"Feature","properties":{"name":"Caldeiras","region":"Portugal","country":"Portugal","country_code":"pt"},"geometry":{"type":"Point","coordinates":[-25.306233,37.773857]}},{"type":"Feature","properties":{"name":"Poça da Dona Beija","region":"Portugal","country":"Portugal","country_code":"pt"},"geometry":{"type":"Point","coordinates":[-25.3191516,37.7691406]}},{"type":"Feature","properties":{"name":"Miradouro de Santa Iria","region":"Portugal","country":"Portugal","country_code":"pt"},"geometry":{"type":"Point","coordinates":[-25.462351,37.8238173]}},{"type":"Feature","properties":{"name":"Quinta da Regaleira","region":"Portugal","country":"Portugal","country_code":"pt"},"geometry":{"type":"Point","coordinates":[-9.3960244,38.7963069]}},{"type":"Feature","properties":{"name":"Ribeira Grande","region":"Portugal","country":"Portugal","country_code":"pt"},"geometry":{"type":"Point","coordinates":[-25.5148137,37.8210369]}},{"type":"Feature","properties":{"name":"Lagoa do Fogo","region":"Portugal","country":"Portugal","country_code":"pt"},"geometry":{"type":"Point","coordinates":[-25.4666667,37.75]}},{"type":"Feature","properties":{"name":"Gorreana Tea Factory","region":"Portugal","country":"Portugal","country_code":"pt"},"geometry":{"type":"Point","coordinates":[-25.4024703,37.8183649]}},{"type":"Feature","properties":{"name":"Azorean Pineapple Plantation","region":"Portugal","country":"Portugal","country_code":"pt"},"geometry":{"type":"Point","coordinates":[-25.6548807,37.7482331]}},{"type":"Feature","properties":{"name":"Miradouro da Ponta da Madrugada","region":"Portugal","country":"Portugal","country_code":"pt"},"geometry":{"type":"Point","coordinates":[-25.1464696,37.7891171]}},{"type":"Feature","properties":{"name":"Miradouro da Ponta do Sossego","region":"Portugal","country":"Portugal","country_code":"pt"},"geometry":{"type":"Point","coordinates":[-25.1458824,37.7992393]}},{"type":"Feature","properties":{"name":"Tossa de Mar","region":"Catalunya","country":"España","country_code":"es"},"geometry":{"type":"Point","coordinates":[2.9335767,41.7200522]}},{"type":"Feature","properties":{"name":"Toledo","region":"Castilla-La Mancha","country":"España","country_code":"es"},"geometry":{"type":"Point","coordinates":[-4.0273231,39.8628316]}},{"type":"Feature","properties":{"name":"Cape Town","region":"Western Cape","country":"South Africa","country_code":"za"},"geometry":{"type":"Point","coordinates":[18.4240553,-33.9248685]}},{"type":"Feature","properties":{"name":"Stellenbosch","region":"Western Cape","country":"South Africa","country_code":"za"},"geometry":{"type":"Point","coordinates":[18.860152,-33.9321045]}},{"type":"Feature","properties":{"name":"Franschhoek","region":"Western Cape","country":"South Africa","country_code":"za"},"geometry":{"type":"Point","coordinates":[19.1523292,-33.8974833]}},{"type":"Feature","properties":{"name":"Paarl","region":"Western Cape","country":"South Africa","country_code":"za"},"geometry":{"type":"Point","coordinates":[18.9621091,-33.7342304]}},{"type":"Feature","properties":{"name":"Boulders Beach","region":"Western Cape","country":"South Africa","country_code":"za"},"geometry":{"type":"Point","coordinates":[18.4494302,-34.195684]}},{"type":"Feature","properties":{"name":"Simon's Town","region":"Western Cape","country":"South Africa","country_code":"za"},"geometry":{"type":"Point","coordinates":[18.4356653,-34.1937654]}},{"type":"Feature","properties":{"name":"Cape of Good Hope","region":"Western Cape","country":"South Africa","country_code":"za"},"geometry":{"type":"Point","coordinates":[18.4739882,-34.3568425]}},{"type":"Feature","properties":{"name":"Cape Point","region":"Western Cape","country":"South Africa","country_code":"za"},"geometry":{"type":"Point","coordinates":[18.4967666,-34.3566871]}},{"type":"Feature","properties":{"name":"Hermanus","region":"Western Cape","country":"South Africa","country_code":"za"},"geometry":{"type":"Point","coordinates":[19.2504436,-34.4092004]}},{"type":"Feature","properties":{"name":"Betty's Bay","region":"Western Cape","country":"South Africa","country_code":"za"},"geometry":{"type":"Point","coordinates":[18.9205099,-34.34747]}},{"type":"Feature","properties":{"name":"Hout Bay Beach","region":"Western Cape","country":"South Africa","country_code":"za"},"geometry":{"type":"Point","coordinates":[18.3512056,-34.0456962]}},{"type":"Feature","properties":{"name":"Chapmans Peak Drive","region":"Western Cape","country":"South Africa","country_code":"za"},"geometry":{"type":"Point","coordinates":[18.3570328,-34.0959636]}},{"type":"Feature","properties":{"name":"Soweto","region":"Gauteng","country":"South Africa","country_code":"za"},"geometry":{"type":"Point","coordinates":[27.8540323,-26.2485377]}},{"type":"Feature","properties":{"name":"Sabie","region":"Mpumalanga","country":"South Africa","country_code":"za"},"geometry":{"type":"Point","coordinates":[30.7867129,-25.0952176]}},{"type":"Feature","properties":{"name":"Graskop","region":"Mpumalanga","country":"South Africa","country_code":"za"},"geometry":{"type":"Point","coordinates":[30.844152,-24.9327665]}},{"type":"Feature","properties":{"name":"Hazyview","region":"Mpumalanga","country":"South Africa","country_code":"za"},"geometry":{"type":"Point","coordinates":[31.1366715,-25.0519121]}},{"type":"Feature","properties":{"name":"Malelane","region":"Mpumalanga","country":"South Africa","country_code":"za"},"geometry":{"type":"Point","coordinates":[31.548418,-25.4860587]}},{"type":"Feature","properties":{"name":"Lower Sabie Rest Camp","region":"Mpumalanga","country":"South Africa","country_code":"za"},"geometry":{"type":"Point","coordinates":[31.915379,-25.11986]}},{"type":"Feature","properties":{"name":"Blyde River Canyon","region":"Mpumalanga","country":"South Africa","country_code":"za"},"geometry":{"type":"Point","coordinates":[30.8128859,-24.591198]}},{"type":"Feature","properties":{"name":"Blyde River Dam Visitor Center","region":"Mpumalanga","country":"South Africa","country_code":"za"},"geometry":{"type":"Point","coordinates":[30.7986109,-24.5411973]}},{"type":"Feature","properties":{"name":"Bourke's Luck Potholes","region":"Mpumalanga","country":"South Africa","country_code":"za"},"geometry":{"type":"Point","coordinates":[30.8108181,-24.6743085]}},{"type":"Feature","properties":{"name":"Reus","region":"Catalunya","country":"España","country_code":"es"},"geometry":{"type":"Point","coordinates":[1.1055321,41.1498259]}},{"type":"Feature","properties":{"name":"Vernazza","region":"Liguria","country":"Italia","country_code":"it"},"geometry":{"type":"Point","coordinates":[9.6849935,44.1349211]}},{"type":"Feature","properties":{"name":"Corniglia","region":"Liguria","country":"Italia","country_code":"it"},"geometry":{"type":"Point","coordinates":[9.7100307,44.1198619]}},{"type":"Feature","properties":{"name":"Manarola","region":"Liguria","country":"Italia","country_code":"it"},"geometry":{"type":"Point","coordinates":[9.7284876,44.1068427]}},{"type":"Feature","properties":{"name":"Riomaggiore","region":"Liguria","country":"Italia","country_code":"it"},"geometry":{"type":"Point","coordinates":[9.7374851,44.0990492]}},{"type":"Feature","properties":{"name":"Porto Venere","region":"Liguria","country":"Italia","country_code":"it"},"geometry":{"type":"Point","coordinates":[9.836628,44.0541257]}},{"type":"Feature","properties":{"name":"Hanoi","region":"Việt Nam","country":"Việt Nam","country_code":"vn"},"geometry":{"type":"Point","coordinates":[105.8341598,21.0277644]}},{"type":"Feature","properties":{"name":"Sa Pa","region":"Tỉnh Lào Cai","country":"Việt Nam","country_code":"vn"},"geometry":{"type":"Point","coordinates":[103.8437852,22.3363608]}},{"type":"Feature","properties":{"name":"Lao Chai","region":"Tỉnh Lào Cai","country":"Việt Nam","country_code":"vn"},"geometry":{"type":"Point","coordinates":[103.8622065,22.2874523]}},{"type":"Feature","properties":{"name":"Lan Ha Bay","region":"Việt Nam","country":"Việt Nam","country_code":"vn"},"geometry":{"type":"Point","coordinates":[107.0893798,20.7582934]}},{"type":"Feature","properties":{"name":"Cát Bà Island","region":"Việt Nam","country":"Việt Nam","country_code":"vn"},"geometry":{"type":"Point","coordinates":[106.999722,20.8]}},{"type":"Feature","properties":{"name":"Hạ Long Bay","region":"Tỉnh Quảng Ninh","country":"Việt Nam","country_code":"vn"},"geometry":{"type":"Point","coordinates":[107.1839024,20.9100512]}},{"type":"Feature","properties":{"name":"Tràng An","region":"Tỉnh Ninh Bình","country":"Việt Nam","country_code":"vn"},"geometry":{"type":"Point","coordinates":[105.9699457,20.2660773]}},{"type":"Feature","properties":{"name":"Hang Múa Ecolodge (Mua Caves Ecolodge)","region":"Tỉnh Ninh Bình","country":"Việt Nam","country_code":"vn"},"geometry":{"type":"Point","coordinates":[105.9376337,20.23096]}},{"type":"Feature","properties":{"name":"Ninh Bình","region":"Tỉnh Ninh Bình","country":"Việt Nam","country_code":"vn"},"geometry":{"type":"Point","coordinates":[105.9744536,20.2506149]}},{"type":"Feature","properties":{"name":"Da Nang","region":"Việt Nam","country":"Việt Nam","country_code":"vn"},"geometry":{"type":"Point","coordinates":[108.0717219,16.0544563]}},{"type":"Feature","properties":{"name":"Hue","region":"Thành phố Huế","country":"Việt Nam","country_code":"vn"},"geometry":{"type":"Point","coordinates":[107.5908628,16.4637117]}},{"type":"Feature","properties":{"name":"Hội An","region":"Việt Nam","country":"Việt Nam","country_code":"vn"},"geometry":{"type":"Point","coordinates":[108.3380469,15.8800584]}},{"type":"Feature","properties":{"name":"My Son Sanctuary","region":"Việt Nam","country":"Việt Nam","country_code":"vn"},"geometry":{"type":"Point","coordinates":[108.1091933,15.7736936]}},{"type":"Feature","properties":{"name":"The Marble Mountains","region":"Việt Nam","country":"Việt Nam","country_code":"vn"},"geometry":{"type":"Point","coordinates":[108.2645803,16.0034756]}},{"type":"Feature","properties":{"name":"Hải Vân Pass","region":"Thành phố Huế","country":"Việt Nam","country_code":"vn"},"geometry":{"type":"Point","coordinates":[108.133333,16.2]}},{"type":"Feature","properties":{"name":"Lap An Lagoon","region":"Thành phố Huế","country":"Việt Nam","country_code":"vn"},"geometry":{"type":"Point","coordinates":[108.0773009,16.2379353]}},{"type":"Feature","properties":{"name":"Con Son Island","region":"Việt Nam","country":"Việt Nam","country_code":"vn"},"geometry":{"type":"Point","coordinates":[106.6114474,8.7009282]}},{"type":"Feature","properties":{"name":"Ho Chi Minh City","region":"Việt Nam","country":"Việt Nam","country_code":"vn"},"geometry":{"type":"Point","coordinates":[106.6296638,10.8230989]}},{"type":"Feature","properties":{"name":"Mỹ Tho","region":"Tỉnh Đồng Tháp","country":"Việt Nam","country_code":"vn"},"geometry":{"type":"Point","coordinates":[106.3438891,10.3765284]}},{"type":"Feature","properties":{"name":"Ben Dinh War Tunnels","region":"Việt Nam","country":"Việt Nam","country_code":"vn"},"geometry":{"type":"Point","coordinates":[106.5295839,11.0622349]}},{"type":"Feature","properties":{"name":"Peralada","region":"Catalunya","country":"España","country_code":"es"},"geometry":{"type":"Point","coordinates":[3.0094404,42.3083523]}},{"type":"Feature","properties":{"name":"Mirador Sant Pere de Rodes","region":"Catalunya","country":"España","country_code":"es"},"geometry":{"type":"Point","coordinates":[3.165306,42.3215462]}},{"type":"Feature","properties":{"name":"Lyon","region":"Auvergne-Rhône-Alpes","country":"France","country_code":"fr"},"geometry":{"type":"Point","coordinates":[4.835659,45.764043]}},{"type":"Feature","properties":{"name":"Vall de Núria","region":"Catalunya","country":"España","country_code":"es"},"geometry":{"type":"Point","coordinates":[2.1499704,42.4001488]}},{"type":"Feature","properties":{"name":"Bot","region":"Catalunya","country":"España","country_code":"es"},"geometry":{"type":"Point","coordinates":[0.3849736,41.0092002]}},{"type":"Feature","properties":{"name":"Miravet","region":"Catalunya","country":"España","country_code":"es"},"geometry":{"type":"Point","coordinates":[0.5998512,41.0407656]}},{"type":"Feature","properties":{"name":"Horta de Sant Joan","region":"Catalunya","country":"España","country_code":"es"},"geometry":{"type":"Point","coordinates":[0.315441,40.9538408]}},{"type":"Feature","properties":{"name":"Vía Verde de la Terra Alta (La Fontcalda)","region":"Catalunya","country":"España","country_code":"es"},"geometry":{"type":"Point","coordinates":[0.4263188,41.0008062]}},{"type":"Feature","properties":{"name":"La Fontcalda","region":"Catalunya","country":"España","country_code":"es"},"geometry":{"type":"Point","coordinates":[0.4286756,41.0011309]}},{"type":"Feature","properties":{"name":"Platja de Muro","region":"Illes Balears","country":"España","country_code":"es"},"geometry":{"type":"Point","coordinates":[3.1182256,39.8089205]}},{"type":"Feature","properties":{"name":"Alcudia","region":"Illes Balears","country":"España","country_code":"es"},"geometry":{"type":"Point","coordinates":[3.1240239,39.8532672]}},{"type":"Feature","properties":{"name":"Sarajevo","region":"Federacija Bosne i Hercegovine","country":"Bosna i Hercegovina / Босна и Херцеговина","country_code":"ba"},"geometry":{"type":"Point","coordinates":[18.4130763,43.8562586]}},{"type":"Feature","properties":{"name":"Jajce","region":"Federacija Bosne i Hercegovine","country":"Bosna i Hercegovina / Босна и Херцеговина","country_code":"ba"},"geometry":{"type":"Point","coordinates":[17.2712934,44.3398061]}},{"type":"Feature","properties":{"name":"Mostar","region":"Federacija Bosne i Hercegovine","country":"Bosna i Hercegovina / Босна и Херцеговина","country_code":"ba"},"geometry":{"type":"Point","coordinates":[17.8077578,43.3437748]}},{"type":"Feature","properties":{"name":"Pomena","region":"Hrvatska","country":"Hrvatska","country_code":"hr"},"geometry":{"type":"Point","coordinates":[17.3450561,42.7879459]}},{"type":"Feature","properties":{"name":"Mljet National Park","region":"Hrvatska","country":"Hrvatska","country_code":"hr"},"geometry":{"type":"Point","coordinates":[17.4085384,42.7739466]}},{"type":"Feature","properties":{"name":"Split","region":"Hrvatska","country":"Hrvatska","country_code":"hr"},"geometry":{"type":"Point","coordinates":[16.4435148,43.5147118]}},{"type":"Feature","properties":{"name":"Blue Lagoon Croatia","region":"Hrvatska","country":"Hrvatska","country_code":"hr"},"geometry":{"type":"Point","coordinates":[16.1753958,43.4412845]}},{"type":"Feature","properties":{"name":"Zadar","region":"Hrvatska","country":"Hrvatska","country_code":"hr"},"geometry":{"type":"Point","coordinates":[15.2313648,44.119371]}},{"type":"Feature","properties":{"name":"Plitvice Lakes National Park","region":"Hrvatska","country":"Hrvatska","country_code":"hr"},"geometry":{"type":"Point","coordinates":[15.5820119,44.8653966]}},{"type":"Feature","properties":{"name":"Ruta del Ferro | Ripoll","region":"Catalunya","country":"España","country_code":"es"},"geometry":{"type":"Point","coordinates":[2.1936228,42.2026476]}},{"type":"Feature","properties":{"name":"New York","region":"New York","country":"United States","country_code":"us"},"geometry":{"type":"Point","coordinates":[-74.0059728,40.7127753]}},{"type":"Feature","properties":{"name":"Greenwich Point","region":"Connecticut","country":"United States","country_code":"us"},"geometry":{"type":"Point","coordinates":[-73.5711468,41.0080536]}},{"type":"Feature","properties":{"name":"Niagara Falls","region":"New York","country":"United States","country_code":"us"},"geometry":{"type":"Point","coordinates":[-79.0377388,43.0962143]}},{"type":"Feature","properties":{"name":"Niagara Falls","region":"Canada","country":"Canada","country_code":"ca"},"geometry":{"type":"Point","coordinates":[-79.0849436,43.0895577]}},{"type":"Feature","properties":{"name":"Cassis","region":"Provence-Alpes-Côte d'Azur","country":"France","country_code":"fr"},"geometry":{"type":"Point","coordinates":[5.53712,43.215134]}},{"type":"Feature","properties":{"name":"Belvédère d'En-Vau","region":"Provence-Alpes-Côte d'Azur","country":"France","country_code":"fr"},"geometry":{"type":"Point","coordinates":[5.493893,43.2041201]}},{"type":"Feature","properties":{"name":"Avignon","region":"Provence-Alpes-Côte d'Azur","country":"France","country_code":"fr"},"geometry":{"type":"Point","coordinates":[4.8059401,43.9486986]}},{"type":"Feature","properties":{"name":"Seoul","region":"대한민국","country":"대한민국","country_code":"kr"},"geometry":{"type":"Point","coordinates":[126.9970831,37.550263]}},{"type":"Feature","properties":{"name":"Suwon-si","region":"대한민국","country":"대한민국","country_code":"kr"},"geometry":{"type":"Point","coordinates":[127.0014613,37.2667603]}},{"type":"Feature","properties":{"name":"Busan","region":"대한민국","country":"대한민국","country_code":"kr"},"geometry":{"type":"Point","coordinates":[129.0714122,35.1731121]}},{"type":"Feature","properties":{"name":"Gyeongju-si","region":"대한민국","country":"대한민국","country_code":"kr"},"geometry":{"type":"Point","coordinates":[129.206998,35.8447433]}},{"type":"Feature","properties":{"name":"Osaka","region":"日本","country":"日本","country_code":"jp"},"geometry":{"type":"Point","coordinates":[135.5022535,34.6937249]}},{"type":"Feature","properties":{"name":"Nara","region":"日本","country":"日本","country_code":"jp"},"geometry":{"type":"Point","coordinates":[135.8048019,34.685109]}},{"type":"Feature","properties":{"name":"Koyasan","region":"日本","country":"日本","country_code":"jp"},"geometry":{"type":"Point","coordinates":[135.5862663,34.2132003]}},{"type":"Feature","properties":{"name":"Kyoto","region":"日本","country":"日本","country_code":"jp"},"geometry":{"type":"Point","coordinates":[135.7681489,35.011564]}},{"type":"Feature","properties":{"name":"Matsumoto","region":"日本","country":"日本","country_code":"jp"},"geometry":{"type":"Point","coordinates":[137.9719897,36.2380434]}},{"type":"Feature","properties":{"name":"Nakatsugawa","region":"日本","country":"日本","country_code":"jp"},"geometry":{"type":"Point","coordinates":[137.5006287,35.4874734]}},{"type":"Feature","properties":{"name":"Magome","region":"日本","country":"日本","country_code":"jp"},"geometry":{"type":"Point","coordinates":[137.5717516,35.5315174]}},{"type":"Feature","properties":{"name":"Nagiso","region":"日本","country":"日本","country_code":"jp"},"geometry":{"type":"Point","coordinates":[137.6089611,35.6038071]}},{"type":"Feature","properties":{"name":"Takayama","region":"日本","country":"日本","country_code":"jp"},"geometry":{"type":"Point","coordinates":[137.252159,36.1461317]}},{"type":"Feature","properties":{"name":"Shirakawa-go","region":"日本","country":"日本","country_code":"jp"},"geometry":{"type":"Point","coordinates":[136.9061975,36.2577967]}},{"type":"Feature","properties":{"name":"Kanazawa","region":"日本","country":"日本","country_code":"jp"},"geometry":{"type":"Point","coordinates":[136.6520376,36.5597341]}},{"type":"Feature","properties":{"name":"Tokyo","region":"日本","country":"日本","country_code":"jp"},"geometry":{"type":"Point","coordinates":[139.650027,35.6764225]}},{"type":"Feature","properties":{"name":"Fujikawaguchiko","region":"日本","country":"日本","country_code":"jp"},"geometry":{"type":"Point","coordinates":[138.7551994,35.4973138]}},{"type":"Feature","properties":{"name":"Perth","region":"Western Australia","country":"Australia","country_code":"au"},"geometry":{"type":"Point","coordinates":[115.8616783,-31.9513993]}},{"type":"Feature","properties":{"name":"Rottnest Island","region":"Western Australia","country":"Australia","country_code":"au"},"geometry":{"type":"Point","coordinates":[115.5398997,-31.9965027]}},{"type":"Feature","properties":{"name":"Murcia","region":"Región de Murcia","country":"España","country_code":"es"},"geometry":{"type":"Point","coordinates":[-1.1320073,37.9893044]}},{"type":"Feature","properties":{"name":"Shanghai","region":"上海市","country":"中国","country_code":"cn"},"geometry":{"type":"Point","coordinates":[121.473701,31.230416]}},{"type":"Feature","properties":{"name":"Suzhou","region":"江苏省","country":"中国","country_code":"cn"},"geometry":{"type":"Point","coordinates":[120.58319,31.2983399]}},{"type":"Feature","properties":{"name":"Xi'An","region":"陕西省","country":"中国","country_code":"cn"},"geometry":{"type":"Point","coordinates":[108.9540936,34.2658138]}},{"type":"Feature","properties":{"name":"Longmen Grottoes","region":"河南省","country":"中国","country_code":"cn"},"geometry":{"type":"Point","coordinates":[112.4678779,34.5594987]}},{"type":"Feature","properties":{"name":"Pingyao","region":"山西省","country":"中国","country_code":"cn"},"geometry":{"type":"Point","coordinates":[112.17557,37.1893399]}},{"type":"Feature","properties":{"name":"Yungang Grottoes","region":"山西省","country":"中国","country_code":"cn"},"geometry":{"type":"Point","coordinates":[113.1324735,40.1115097]}},{"type":"Feature","properties":{"name":"Datong","region":"山西省","country":"中国","country_code":"cn"},"geometry":{"type":"Point","coordinates":[113.30001,40.0763699]}},{"type":"Feature","properties":{"name":"Mutianyu Great Wall Travel Area","region":"北京市","country":"中国","country_code":"cn"},"geometry":{"type":"Point","coordinates":[116.5639347,40.4197869]}},{"type":"Feature","properties":{"name":"Beijing","region":"北京市","country":"中国","country_code":"cn"},"geometry":{"type":"Point","coordinates":[116.407395,39.904211]}},{"type":"Feature","properties":{"name":"Krong Siem Reap","region":"ខេត្តសៀមរាប","country":"ព្រះរាជាណាចក្រ​កម្ពុជា","country_code":"kh"},"geometry":{"type":"Point","coordinates":[103.856403,13.3632533]}},{"type":"Feature","properties":{"name":"Kaoh Ker","region":"ខេត្តព្រះវិហារ","country":"ព្រះរាជាណាចក្រ​កម្ពុជា","country_code":"kh"},"geometry":{"type":"Point","coordinates":[104.5355585,13.790305]}},{"type":"Feature","properties":{"name":"Phnom Penh","region":"រាជធានីភ្នំពេញ","country":"ព្រះរាជាណាចក្រ​កម្ពុជា","country_code":"kh"},"geometry":{"type":"Point","coordinates":[104.9282099,11.5563738]}},{"type":"Feature","properties":{"name":"Prasat Preah Vihear","region":"ខេត្តព្រះវិហារ","country":"ព្រះរាជាណាចក្រ​កម្ពុជា","country_code":"kh"},"geometry":{"type":"Point","coordinates":[104.680271,14.3903503]}},{"type":"Feature","properties":{"name":"Kampong Khleang","region":"ខេត្តសៀមរាប","country":"ព្រះរាជាណាចក្រ​កម្ពុជា","country_code":"kh"},"geometry":{"type":"Point","coordinates":[104.1254812,13.1052995]}},{"type":"Feature","properties":{"name":"Koh Rong Sanloem","region":"ព្រះរាជាណាចក្រ​កម្ពុជា","country":"ព្រះរាជាណាចក្រ​កម្ពុជា","country_code":"kh"},"geometry":{"type":"Point","coordinates":[103.2952096,10.5886219]}},{"type":"Feature","properties":{"name":"Manresa","region":"Catalunya","country":"España","country_code":"es"},"geometry":{"type":"Point","coordinates":[1.8225882,41.7297841]}},{"type":"Feature","properties":{"name":"Santpedor","region":"Catalunya","country":"España","country_code":"es"},"geometry":{"type":"Point","coordinates":[1.8379292,41.7845483]}},{"type":"Feature","properties":{"name":"Pesaro","region":"Marche","country":"Italia","country_code":"it"},"geometry":{"type":"Point","coordinates":[12.9114045,43.9111365]}},{"type":"Feature","properties":{"name":"Playa Chilches/Comunidad Valenciana/Castellón/España","region":"Comunitat Valenciana","country":"España","country_code":"es"},"geometry":{"type":"Point","coordinates":[-0.1556553,39.7675557]}},{"type":"Feature","properties":{"name":"Castellón de la Plana","region":"Comunitat Valenciana","country":"España","country_code":"es"},"geometry":{"type":"Point","coordinates":[-0.0496388,39.9855905]}},{"type":"Feature","properties":{"name":"Carrer de la Font","region":"Catalunya","country":"España","country_code":"es"},"geometry":{"type":"Point","coordinates":[0.7626452,42.0011845]}},{"type":"Feature","properties":{"name":"Busunya","region":"Bono East Region","country":"Ghana","country_code":"gh"},"geometry":{"type":"Point","coordinates":[-1.6590662,7.6868995]}},{"type":"Feature","properties":{"name":"Nkoranza","region":"Bono East Region","country":"Ghana","country_code":"gh"},"geometry":{"type":"Point","coordinates":[-1.710095,7.5593118]}},{"type":"Feature","properties":{"name":"Boabeng Fiema Monkey Sanctuary","region":"Bono East Region","country":"Ghana","country_code":"gh"},"geometry":{"type":"Point","coordinates":[-1.6949033,7.7085523]}},{"type":"Feature","properties":{"name":"Larabanga","region":"Savannah Region","country":"Ghana","country_code":"gh"},"geometry":{"type":"Point","coordinates":[-1.8586613,9.2156009]}},{"type":"Feature","properties":{"name":"Plovdiv","region":"Пловдив","country":"България","country_code":"bg"},"geometry":{"type":"Point","coordinates":[24.7452904,42.1354079]}},{"type":"Feature","properties":{"name":"Seven Rila Lakes","region":"Кюстендил","country":"България","country_code":"bg"},"geometry":{"type":"Point","coordinates":[23.32,42.202778]}},{"type":"Feature","properties":{"name":"Rila Monastery","region":"Кюстендил","country":"България","country_code":"bg"},"geometry":{"type":"Point","coordinates":[23.3401919,42.1334828]}},{"type":"Feature","properties":{"name":"Sa Riera","region":"Catalunya","country":"España","country_code":"es"},"geometry":{"type":"Point","coordinates":[3.210032,41.9717716]}},{"type":"Feature","properties":{"name":"Sa Tuna","region":"Catalunya","country":"España","country_code":"es"},"geometry":{"type":"Point","coordinates":[3.2287137,41.9605635]}},{"type":"Feature","properties":{"name":"Nairobi","region":"Nairobi","country":"Kenya","country_code":"ke"},"geometry":{"type":"Point","coordinates":[36.8219462,-1.2920659]}},{"type":"Feature","properties":{"name":"Lake Naivasha","region":"Nakuru","country":"Kenya","country_code":"ke"},"geometry":{"type":"Point","coordinates":[36.3714756,-0.7753844]}},{"type":"Feature","properties":{"name":"Hells Gate National Park","region":"Nakuru","country":"Kenya","country_code":"ke"},"geometry":{"type":"Point","coordinates":[36.3173817,-0.87579]}},{"type":"Feature","properties":{"name":"Amboseli National Park","region":"Kajiado","country":"Kenya","country_code":"ke"},"geometry":{"type":"Point","coordinates":[37.2284844,-2.6382407]}},{"type":"Feature","properties":{"name":"Nairobi National Park","region":"Nairobi","country":"Kenya","country_code":"ke"},"geometry":{"type":"Point","coordinates":[36.86102,-1.3824923]}},{"type":"Feature","properties":{"name":"Uchisar Castle","region":"İç Anadolu Bölgesi","country":"Türkiye","country_code":"tr"},"geometry":{"type":"Point","coordinates":[34.805403,38.6299062]}},{"type":"Feature","properties":{"name":"Göreme","region":"İç Anadolu Bölgesi","country":"Türkiye","country_code":"tr"},"geometry":{"type":"Point","coordinates":[34.828889,38.643056]}},{"type":"Feature","properties":{"name":"Red Valley","region":"İç Anadolu Bölgesi","country":"Türkiye","country_code":"tr"},"geometry":{"type":"Point","coordinates":[34.8597377,38.651891]}},{"type":"Feature","properties":{"name":"Rose Valley","region":"İç Anadolu Bölgesi","country":"Türkiye","country_code":"tr"},"geometry":{"type":"Point","coordinates":[34.843266,38.6591235]}},{"type":"Feature","properties":{"name":"Derinkuyu Underground City","region":"İç Anadolu Bölgesi","country":"Türkiye","country_code":"tr"},"geometry":{"type":"Point","coordinates":[34.7350325,38.3734081]}},{"type":"Feature","properties":{"name":"Ihlara Valley","region":"İç Anadolu Bölgesi","country":"Türkiye","country_code":"tr"},"geometry":{"type":"Point","coordinates":[34.3027527,38.2539041]}},{"type":"Feature","properties":{"name":"Selima Cathedral","region":"İç Anadolu Bölgesi","country":"Türkiye","country_code":"tr"},"geometry":{"type":"Point","coordinates":[34.2594331,38.301198]}},{"type":"Feature","properties":{"name":"Göreme Open Air Museum","region":"İç Anadolu Bölgesi","country":"Türkiye","country_code":"tr"},"geometry":{"type":"Point","coordinates":[34.8443535,38.6411796]}},{"type":"Feature","properties":{"name":"Antalya","region":"Akdeniz Bölgesi","country":"Türkiye","country_code":"tr"},"geometry":{"type":"Point","coordinates":[30.7133233,36.8968908]}},{"type":"Feature","properties":{"name":"Mount Chimaera","region":"Akdeniz Bölgesi","country":"Türkiye","country_code":"tr"},"geometry":{"type":"Point","coordinates":[30.4563828,36.4311275]}},{"type":"Feature","properties":{"name":"Myra ruins","region":"Akdeniz Bölgesi","country":"Türkiye","country_code":"tr"},"geometry":{"type":"Point","coordinates":[29.9851475,36.2588449]}},{"type":"Feature","properties":{"name":"Kaş","region":"Akdeniz Bölgesi","country":"Türkiye","country_code":"tr"},"geometry":{"type":"Point","coordinates":[29.63955,36.199913]}},{"type":"Feature","properties":{"name":"Patara Ancient City","region":"Akdeniz Bölgesi","country":"Türkiye","country_code":"tr"},"geometry":{"type":"Point","coordinates":[29.3154847,36.2614096]}},{"type":"Feature","properties":{"name":"Tlos Ruins","region":"Ege Bölgesi","country":"Türkiye","country_code":"tr"},"geometry":{"type":"Point","coordinates":[29.420206,36.5542339]}},{"type":"Feature","properties":{"name":"Pamukkale","region":"Ege Bölgesi","country":"Türkiye","country_code":"tr"},"geometry":{"type":"Point","coordinates":[29.1187097,37.9136957]}},{"type":"Feature","properties":{"name":"Pamukkale","region":"Ege Bölgesi","country":"Türkiye","country_code":"tr"},"geometry":{"type":"Point","coordinates":[29.1187097,37.9136957]}},{"type":"Feature","properties":{"name":"Selçuk","region":"Ege Bölgesi","country":"Türkiye","country_code":"tr"},"geometry":{"type":"Point","coordinates":[27.369954,37.950845]}},{"type":"Feature","properties":{"name":"Ephesus Ancient City","region":"Ege Bölgesi","country":"Türkiye","country_code":"tr"},"geometry":{"type":"Point","coordinates":[27.3414579,37.9409263]}},{"type":"Feature","properties":{"name":"Karahayıt","region":"Ege Bölgesi","country":"Türkiye","country_code":"tr"},"geometry":{"type":"Point","coordinates":[29.102683,37.965386]}},{"type":"Feature","properties":{"name":"Pallerols de Rialb","region":"Catalunya","country":"España","country_code":"es"},"geometry":{"type":"Point","coordinates":[1.214722,42.0375]}},{"type":"Feature","properties":{"name":"Bardolino","region":"Veneto","country":"Italia","country_code":"it"},"geometry":{"type":"Point","coordinates":[10.724313,45.5476082]}},{"type":"Feature","properties":{"name":"Lazise","region":"Veneto","country":"Italia","country_code":"it"},"geometry":{"type":"Point","coordinates":[10.7351123,45.5060151]}}]}